Id,Time(seconds),Time(text),Latitude,Longitude,FlightMode,Altitude(feet),Altitude(meters),VpsAltitude(feet),VpsAltitude(meters),HSpeed(mph),HSpeed(m/s),GpsSpeed(mph),GpsSpeed(m/s),HomeDistance(feet),HomeDistance(meters),HomeLatitude,HomeLongitude,GpsCount,GpsLevel,BatteryPower(%),BatteryVoltage,BatteryVoltageDeviation,BatteryCell1Voltage,BatteryCell2Voltage,BatteryCell3Voltage,BatteryCell4Voltage,VelocityX,VelocityY,VelocityZ,Pitch,Roll,Yaw,Yaw(360),RcAileron,RcElevator,RcGyro,RcRudder,RcThrottle,NonGpsError,GoHomeStatus,AppTip,AppWarning,AppMessage
1,0.3,0m 0.3s,0,0,Starting Motors,0.0,0.0,0.3,0.1,0.0,0.0,0.0,0.0,0.0,0.0,0,0,5,0,95,16.914,0.005,4.226,4.228,4.231,4.229,0,0,0,-4.3,-0.4,-100,260,1024,1024,1024,1024,1024,,,,,
2,0.4,0m 0.4s,0,0,Starting Motors,0.0,0.0,0.3,0.1,0.0,0.0,0.0,0.0,0.0,0.0,0,0,5,0,95,16.914,0.005,4.226,4.228,4.231,4.229,0,0,0,-4.3,-0.4,-100,260,1024,1024,1024,1024,1024,,,,,
3,0.5,0m 0.5s,0,0,Starting Motors,0.0,0.0,0.3,0.1,0.0,0.0,0.0,0.0,0.0,0.0,0,0,5,0,95,16.914,0.005,4.226,4.228,4.231,4.229,0,0,0,-4.3,-0.5,-100,260,1024,1024,1024,1024,1024,,,,,
4,0.6,0m 0.6s,0,0,Starting Motors,0.0,0.0,0.3,0.1,0.0,0.0,0.0,0.0,0.0,0.0,0,0,5,0,95,16.914,0.005,4.226,4.228,4.231,4.229,0,0,0,-4.3,-0.5,-100,260,1024,1024,1024,1024,1024,,,,,
5,0.7,0m 0.7s,0,0,Starting Motors,0.0,0.0,0.3,0.1,0.0,0.0,0.0,0.0,0.0,0.0,0,0,5,0,95,16.914,0.005,4.226,4.228,4.231,4.229,0,0,0,-4.3,-0.5,-100,260,1024,1024,1024,1024,1024,,,,,
6,0.8,0m 0.8s,0,0,Starting Motors,0.0,0.0,0.3,0.1,0.0,0.0,0.0,0.0,0.0,0.0,0,0,5,0,95,16.914,0.005,4.226,4.228,4.231,4.229,0,0,0,-4.3,-0.5,-100,260,1024,1024,1024,1024,1024,,,,,
7,0.9,0m 0.9s,0,0,Starting Motors,0.0,0.0,0.3,0.1,0.0,0.0,0.0,0.0,0.0,0.0,0,0,5,0,95,16.914,0.005,4.226,4.228,4.231,4.229,0,0,0,-4.3,-0.5,-100,260,1024,1024,1024,1024,1024,,,,,
8,1.1,0m 1.1s,0,0,Starting Motors,0.0,0.0,0.3,0.1,0.0,0.0,0.0,0.0,0.0,0.0,0,0,5,0,95,16.914,0.005,4.226,4.228,4.231,4.229,0,0,0,-4.2,-0.6,-99.9,260.1,1024,1024,1024,1024,1068,,,,,
9,1.2,0m 1.2s,0,0,Starting Motors,0.0,0.0,0.3,0.1,0.0,0.0,0.0,0.0,0.0,0.0,0,0,5,0,95,16.914,0.005,4.226,4.228,4.231,4.229,0,0,0,-4.3,-0.6,-99.9,260.1,1024,1024,1024,1024,1305,,,,,
10,1.3,0m 1.3s,0,0,Starting Motors,0.0,0.0,0.3,0.1,0.0,0.0,0.0,0.0,0.0,0.0,0,0,5,0,95,16.913,0.005,4.226,4.228,4.231,4.228,0,0,0,-4.3,-0.5,-99.9,260.1,1024,1024,1024,1024,1489,,,,,
11,1.4,0m 1.4s,0,0,Starting Motors,0.0,0.0,0.3,0.1,0.0,0.0,0.0,0.0,0.0,0.0,0,0,5,0,95,16.913,0.005,4.226,4.228,4.231,4.228,0,0,0,-4.3,-0.5,-99.9,260.1,1024,1024,1024,1024,1534,,,,,
12,1.5,0m 1.5s,0,0,Manual Takeoff,0.0,0.0,0.3,0.1,0.0,0.0,0.0,0.0,0.0,0.0,0,0,5,0,95,16.913,0.005,4.226,4.228,4.231,4.228,0,0,0,-4.3,-0.6,-99.9,260.1,1024,1024,1024,1024,1552,,,,,
13,1.6,0m 1.6s,0,0,Manual Takeoff,0.0,0.0,0.3,0.1,0.0,0.0,0.0,0.0,0.0,0.0,0,0,5,0,95,16.913,0.005,4.226,4.228,4.231,4.228,0,0,0,-4.2,-0.6,-99.9,260.1,1024,1024,1024,1024,1531,,,,,
14,1.7,0m 1.7s,0,0,Manual Takeoff,0.0,0.0,0.3,0.1,0.0,0.0,0.0,0.0,0.0,0.0,0,0,5,0,95,16.913,0.005,4.226,4.228,4.231,4.228,0,0,0,-4.3,-0.7,-99.9,260.1,1024,1024,1024,1024,1520,,,,,
15,1.8,0m 1.8s,0,0,Manual Takeoff,0.0,0.0,0.3,0.1,0.0,0.0,0.0,0.0,0.0,0.0,0,0,5,0,95,16.913,0.005,4.226,4.228,4.231,4.228,0,0,0,-4.2,-0.7,-99.9,260.1,1024,1024,1024,1024,1520,,,,,
16,1.9,0m 1.9s,0,0,Manual Takeoff,0.0,0.0,0.3,0.1,0.0,0.0,0.0,0.0,0.0,0.0,0,0,5,0,95,16.913,0.005,4.226,4.228,4.231,4.228,0,0,0,-4.5,-0.8,-100.2,259.8,1024,1024,1024,1024,1535,,,,,
17,2,0m 2s,0,0,Manual Takeoff,0.0,0.0,0.3,0.1,0.0,0.0,0.0,0.0,0.0,0.0,0,0,5,0,95,16.913,0.005,4.226,4.228,4.231,4.228,0,0,0,-5.3,-1,-100.9,259.1,1024,1024,1024,1024,1535,,,,,
18,2.1,0m 2.1s,0,0,Manual Takeoff,0.0,0.0,0.3,0.1,0.0,0.0,0.0,0.0,0.0,0.0,0,0,5,0,95,16.913,0.005,4.226,4.228,4.231,4.228,0,0,0,-7.2,-1.4,-101.2,258.8,1024,1024,1024,1024,1534,,,,,
19,2.2,0m 2.2s,0,0,Manual Takeoff,0.0,0.0,0.3,0.1,0.5,0.2,0.0,0.0,0.0,0.0,0,0,5,0,95,16.913,0.005,4.226,4.228,4.231,4.228,-0.1,-0.2,0,-8.5,-1.1,-101.2,258.8,1024,1024,1024,1024,1534,,,,,
20,2.3,0m 2.3s,0,0,P-GPS,0.0,0.0,0.7,0.2,0.7,0.3,0.0,0.0,0.0,0.0,0,0,5,0,95,16.84,0.005,4.21,4.211,4.212,4.207,-0.1,-0.3,-0.1,-8.2,-0.2,-101.3,258.7,1024,1024,1024,1024,1534,,,,,
21,2.4,0m 2.4s,0,0,P-GPS,0.0,0.0,0.7,0.2,0.9,0.4,0.0,0.0,0.0,0.0,0,0,5,0,95,16.84,0.005,4.21,4.211,4.212,4.207,-0.1,-0.4,-0.3,-4,0.2,-101.5,258.5,1024,1024,1024,1024,1531,,,,,
22,2.5,0m 2.5s,0,0,P-GPS,0.0,0.0,1.0,0.3,0.9,0.4,0.0,0.0,0.0,0.0,0,0,5,0,95,16.84,0.005,4.21,4.211,4.212,4.207,-0.1,-0.4,-0.6,1.7,0.1,-101.4,258.6,1024,1024,1024,1024,1519,,,,,
23,2.6,0m 2.6s,0,0,P-GPS,0.3,0.1,1.3,0.4,0.7,0.3,0.0,0.0,0.0,0.0,0,0,5,0,95,16.84,0.005,4.21,4.211,4.212,4.207,-0.1,-0.3,-0.8,5.4,0.1,-101.3,258.7,1024,1024,1024,1024,1476,,,,,
24,2.7,0m 2.7s,0,0,P-GPS,0.7,0.2,2.0,0.6,0.5,0.2,0.0,0.0,0.0,0.0,0,0,5,0,95,16.84,0.005,4.21,4.211,4.212,4.207,-0.1,-0.2,-1.1,5.2,0.1,-101.3,258.7,1024,1024,1024,1024,1395,,,,,
25,2.8,0m 2.8s,0,0,P-GPS,1.0,0.3,2.3,0.7,0.0,0.0,0.0,0.0,0.0,0.0,0,0,5,0,95,16.84,0.005,4.21,4.211,4.212,4.207,0,0,-1.4,2.4,0.2,-101.4,258.6,1024,1024,1024,1024,1354,,,,,
26,2.9,0m 2.9s,0,0,P-GPS,1.6,0.5,2.6,0.8,0.0,0.0,0.0,0.0,0.0,0.0,0,0,5,0,95,16.84,0.005,4.21,4.211,4.212,4.207,0,0,-1.5,-0.5,0.6,-101.4,258.6,1024,1024,1024,1024,1359,,,,,
27,3,0m 3s,0,0,P-GPS,2.3,0.7,3.3,1.0,0.0,0.0,0.0,0.0,0.0,0.0,0,0,5,0,95,16.84,0.005,4.21,4.211,4.212,4.207,0,0,-1.5,-1.5,1.2,-101.3,258.7,1024,1024,1024,1024,1334,,,,,
28,3.1,0m 3.1s,0,0,P-GPS,2.6,0.8,3.6,1.1,0.0,0.0,0.0,0.0,0.0,0.0,0,0,5,0,95,16.84,0.005,4.21,4.211,4.212,4.207,0,0,-1.5,-0.9,1.9,-101.3,258.7,1024,1024,1024,1024,1296,,,,,
29,3.2,0m 3.2s,0,0,P-GPS,3.3,1.0,4.3,1.3,0.0,0.0,0.0,0.0,0.0,0.0,0,0,5,0,95,16.84,0.005,4.21,4.211,4.212,4.207,0,0,-1.4,0.1,1.7,-101.3,258.7,1024,1024,1024,1024,1294,,,,,
30,3.3,0m 3.3s,0,0,P-GPS,3.6,1.1,4.6,1.4,0.0,0.0,0.0,0.0,0.0,0.0,0,0,5,0,95,16.042,0.034,4.014,4.016,4.023,3.989,0,0,-1.2,0.4,1.2,-101.3,258.7,1024,1024,1024,1024,1364,,,,,
31,3.4,0m 3.4s,0,0,P-GPS,3.9,1.2,4.9,1.5,0.2,0.1,0.0,0.0,0.0,0.0,0,0,5,0,95,16.042,0.034,4.014,4.016,4.023,3.989,0,0.1,-1,-0.1,0.7,-101.3,258.7,1024,1024,1024,1024,1362,,,,,
32,3.5,0m 3.5s,0,0,P-GPS,4.3,1.3,5.2,1.6,0.2,0.1,0.0,0.0,0.0,0.0,0,0,5,0,95,16.042,0.034,4.014,4.016,4.023,3.989,0,0.1,-0.9,-1.7,0.2,-101.3,258.7,1024,1024,1024,1024,1282,,,,,
33,3.6,0m 3.6s,0,0,P-GPS,4.6,1.4,5.6,1.7,0.2,0.1,0.0,0.0,0.0,0.0,0,0,5,0,95,16.042,0.034,4.014,4.016,4.023,3.989,0,0.1,-0.8,-2.9,0.1,-101.3,258.7,1024,1024,1024,1024,1165,,,,,
34,3.7,0m 3.7s,0,0,P-GPS,4.9,1.5,5.9,1.8,0.0,0.0,0.0,0.0,0.0,0.0,0,0,5,0,95,16.042,0.034,4.014,4.016,4.023,3.989,0,0,-0.6,-3,0.5,-101.3,258.7,1024,1024,1024,1024,1028,,,,,
35,3.8,0m 3.8s,0,0,P-GPS,4.9,1.5,5.9,1.8,0.0,0.0,0.0,0.0,0.0,0.0,0,0,5,0,95,16.042,0.034,4.014,4.016,4.023,3.989,0,0,-0.5,-2.2,0.8,-101.4,258.6,1024,1024,1024,1024,1024,,,,,
36,3.9,0m 3.9s,0,0,P-GPS,5.2,1.6,6.2,1.9,0.2,0.1,0.0,0.0,0.0,0.0,0,0,5,0,95,16.042,0.034,4.014,4.016,4.023,3.989,0,0.1,-0.3,-1.5,0.7,-101.4,258.6,1024,1024,1024,1024,1024,,,,,
37,4,0m 4s,0,0,P-GPS,5.2,1.6,6.2,1.9,0.2,0.1,0.0,0.0,0.0,0.0,0,0,5,0,95,16.042,0.034,4.014,4.016,4.023,3.989,0,0.1,-0.1,-1.9,0.7,-101.3,258.7,1024,1024,1024,1024,1024,,,,,
38,4.1,0m 4.1s,0,0,P-GPS,5.2,1.6,6.2,1.9,0.2,0.1,0.0,0.0,0.0,0.0,0,0,5,0,95,16.042,0.034,4.014,4.016,4.023,3.989,0,0.1,0,-2.9,0.8,-101.3,258.7,1024,1024,1024,1024,1024,,,,,
39,4.2,0m 4.2s,0,0,P-GPS,5.2,1.6,6.2,1.9,0.0,0.0,0.0,0.0,0.0,0.0,0,0,5,0,95,16.042,0.034,4.014,4.016,4.023,3.989,0,0,0,-3.6,1,-101.4,258.6,1024,1024,1024,1024,1024,,,,,
40,4.3,0m 4.3s,0,0,P-GPS,5.2,1.6,6.2,1.9,0.0,0.0,0.0,0.0,0.0,0.0,0,0,5,0,95,16.042,0.034,4.014,4.016,4.023,3.989,0,0,0.1,-3.2,0.9,-101.4,258.6,1024,1024,1024,1024,1024,,,,,
41,4.4,0m 4.4s,0,0,P-GPS,5.2,1.6,6.2,1.9,0.0,0.0,0.0,0.0,0.0,0.0,0,0,5,0,95,16.042,0.034,4.014,4.016,4.023,3.989,0,0,0.1,-2.2,0.5,-101.4,258.6,1024,1024,1024,1024,1024,,,,,
42,4.5,0m 4.5s,0,0,P-GPS,5.2,1.6,6.2,1.9,0.0,0.0,0.0,0.0,0.0,0.0,0,0,5,0,95,16.042,0.034,4.014,4.016,4.023,3.989,0,0,0,-1.5,0.2,-101.3,258.7,1024,1024,1024,1024,1024,,,,,
43,4.6,0m 4.6s,0,0,P-GPS,5.2,1.6,6.2,1.9,0.0,0.0,0.0,0.0,0.0,0.0,0,0,5,0,95,16.042,0.034,4.014,4.016,4.023,3.989,0,0,0,-1.6,0.3,-101.3,258.7,1024,1024,1024,1024,1024,,,,,
44,4.7,0m 4.7s,0,0,P-GPS,5.2,1.6,6.2,1.9,0.0,0.0,0.0,0.0,0.0,0.0,0,0,5,0,95,16.042,0.034,4.014,4.016,4.023,3.989,0,0,0,-2.2,0.6,-101.3,258.7,1024,1024,1024,1024,1024,,,,,
45,4.8,0m 4.8s,0,0,P-GPS,5.2,1.6,6.2,1.9,0.0,0.0,0.0,0.0,0.0,0.0,0,0,4,0,95,16.042,0.034,4.014,4.016,4.023,3.989,0,0,0,-2.9,0.7,-101.3,258.7,1024,1024,1024,1024,1024,,,,,
46,4.9,0m 4.9s,0,0,P-GPS,5.2,1.6,6.2,1.9,0.0,0.0,0.0,0.0,0.0,0.0,0,0,4,0,95,16.042,0.034,4.014,4.016,4.023,3.989,0,0,0,-2.9,0.6,-101.4,258.6,1024,1024,1024,1024,1024,,,,,
47,5,0m 5s,0,0,P-GPS,4.9,1.5,6.2,1.9,0.0,0.0,0.0,0.0,0.0,0.0,0,0,4,0,95,16.042,0.034,4.014,4.016,4.023,3.989,0,0,0,-2.2,0.6,-101.4,258.6,1024,1024,1024,1024,1024,,,,,
48,5.1,0m 5.1s,0,0,P-GPS,4.9,1.5,6.2,1.9,0.0,0.0,0.0,0.0,0.0,0.0,0,0,4,0,95,16.042,0.034,4.014,4.016,4.023,3.989,0,0,0,-1.7,0.5,-101.4,258.6,1024,1024,1024,1024,1024,,,,,
49,5.2,0m 5.2s,0,0,P-GPS,5.2,1.6,6.2,1.9,0.0,0.0,0.0,0.0,0.0,0.0,0,0,4,0,95,16.042,0.034,4.014,4.016,4.023,3.989,0,0,0,-1.6,0.1,-101.4,258.6,1024,1024,1024,1024,1024,,,,,
50,5.3,0m 5.3s,0,0,P-GPS,5.2,1.6,6.2,1.9,0.0,0.0,0.0,0.0,0.0,0.0,0,0,4,0,95,15.978,0.04,3.974,3.991,4.014,3.999,0,0,0,-2.2,0,-101.3,258.7,1024,1024,1024,1024,1024,,,,,
51,5.4,0m 5.4s,0,0,P-GPS,5.2,1.6,6.2,1.9,0.0,0.0,0.0,0.0,0.0,0.0,0,0,4,0,95,15.978,0.04,3.974,3.991,4.014,3.999,0,0,0,-2.8,0,-101.3,258.7,1024,1024,1024,1024,1024,,,,,
52,5.5,0m 5.5s,0,0,P-GPS,5.2,1.6,6.2,1.9,0.0,0.0,0.0,0.0,0.0,0.0,0,0,4,0,95,15.978,0.04,3.974,3.991,4.014,3.999,0,0,0,-2.8,0.3,-101.3,258.7,1024,1024,1024,1024,1024,,,,,
53,5.6,0m 5.6s,0,0,P-GPS,5.2,1.6,6.2,1.9,0.0,0.0,0.0,0.0,0.0,0.0,0,0,4,0,95,15.978,0.04,3.974,3.991,4.014,3.999,0,0,0,-2.5,0.6,-101.3,258.7,1024,1024,1024,1024,1024,,,,,
54,5.7,0m 5.7s,0,0,P-GPS,5.2,1.6,6.2,1.9,0.0,0.0,0.0,0.0,0.0,0.0,0,0,4,0,95,15.978,0.04,3.974,3.991,4.014,3.999,0,0,0,-2.2,0.5,-101.4,258.6,1024,1024,1024,1024,1024,,,,,
55,5.8,0m 5.8s,0,0,P-GPS,5.2,1.6,6.2,1.9,0.0,0.0,0.0,0.0,0.0,0.0,0,0,4,0,95,15.978,0.04,3.974,3.991,4.014,3.999,0,0,0,-2.1,0.1,-101.4,258.6,1024,1024,1024,1024,1024,,,,,
56,5.9,0m 5.9s,0,0,P-GPS,5.2,1.6,6.2,1.9,0.0,0.0,0.0,0.0,0.0,0.0,0,0,4,0,95,15.978,0.04,3.974,3.991,4.014,3.999,0,0,0,-2.1,0,-101.3,258.7,1024,1024,1024,1024,1024,,,,,
57,6,0m 6s,0,0,P-GPS,5.2,1.6,6.2,1.9,0.0,0.0,0.0,0.0,0.0,0.0,0,0,4,0,95,15.978,0.04,3.974,3.991,4.014,3.999,0,0,0,-2.4,0.1,-101.3,258.7,1024,1024,1024,1024,1024,,,,,
58,6.1,0m 6.1s,0,0,P-GPS,5.2,1.6,6.2,1.9,0.0,0.0,0.0,0.0,0.0,0.0,0,0,4,0,95,15.978,0.04,3.974,3.991,4.014,3.999,0,0,0,-2.7,0.4,-101.3,258.7,1024,1024,1024,1024,1024,,,,,
59,6.2,0m 6.2s,0,0,P-GPS,5.2,1.6,6.2,1.9,0.0,0.0,0.0,0.0,0.0,0.0,0,0,4,0,95,15.978,0.04,3.974,3.991,4.014,3.999,0,0,0,-2.8,0.5,-101.3,258.7,1024,1024,1024,1024,1024,,,,,
60,6.3,0m 6.3s,0,0,P-GPS,5.2,1.6,6.2,1.9,0.0,0.0,0.0,0.0,0.0,0.0,0,0,4,0,95,15.846,0.022,3.953,3.963,3.975,3.955,0,0,0,-2.6,0,-101.3,258.7,1024,1024,1024,1024,1024,,,,,
61,6.4,0m 6.4s,0,0,P-GPS,5.2,1.6,6.2,1.9,0.0,0.0,0.0,0.0,0.0,0.0,0,0,4,0,95,15.846,0.022,3.953,3.963,3.975,3.955,0,0,0,-2.5,-0.3,-101.2,258.8,1024,1024,1024,1024,1024,,,,,
62,6.5,0m 6.5s,0,0,P-GPS,5.2,1.6,6.2,1.9,0.0,0.0,0.0,0.0,0.0,0.0,0,0,4,0,95,15.846,0.022,3.953,3.963,3.975,3.955,0,0,0,-2.3,-0.3,-101.2,258.8,1024,1024,1024,1024,1024,,,,,
63,6.6,0m 6.6s,0,0,P-GPS,5.2,1.6,6.2,1.9,0.0,0.0,0.0,0.0,0.0,0.0,0,0,4,0,95,15.846,0.022,3.953,3.963,3.975,3.955,0,0,0,-2.4,0,-101.2,258.8,1024,1024,1024,1024,1024,,,,,
64,6.7,0m 6.7s,0,0,P-GPS,5.2,1.6,6.2,1.9,0.0,0.0,0.0,0.0,0.0,0.0,0,0,4,0,95,15.846,0.022,3.953,3.963,3.975,3.955,0,0,0,-2.7,0.1,-101.2,258.8,1024,1024,1024,1024,1024,,,,,
65,6.8,0m 6.8s,0,0,P-GPS,5.2,1.6,6.2,1.9,0.0,0.0,0.0,0.0,0.0,0.0,0,0,4,0,95,15.846,0.022,3.953,3.963,3.975,3.955,0,0,0,-2.7,0,-101.2,258.8,1024,1024,1024,1024,1024,,,,,
66,6.9,0m 6.9s,0,0,P-GPS,5.2,1.6,6.2,1.9,0.0,0.0,0.0,0.0,0.0,0.0,0,0,4,0,95,15.846,0.022,3.953,3.963,3.975,3.955,0,0,0,-2.5,-0.4,-101.3,258.7,1024,1024,1024,1024,1024,,,,,
67,7,0m 7s,0,0,P-GPS,5.2,1.6,6.2,1.9,0.0,0.0,0.0,0.0,0.0,0.0,0,0,4,0,95,15.846,0.022,3.953,3.963,3.975,3.955,0,0,0,-2.3,-0.9,-101.3,258.7,1024,1024,1024,1024,1024,,,,,
68,7.1,0m 7.1s,0,0,P-GPS,5.2,1.6,6.2,1.9,0.0,0.0,0.0,0.0,0.0,0.0,0,0,4,0,95,15.846,0.022,3.953,3.963,3.975,3.955,0,0,0,-2.3,-1.1,-101.3,258.7,1024,1024,1024,1024,1024,,,,,
69,7.2,0m 7.2s,0,0,P-GPS,5.2,1.6,6.2,1.9,0.0,0.0,0.0,0.0,0.0,0.0,0,0,4,0,95,15.846,0.022,3.953,3.963,3.975,3.955,0,0,0,-2.5,-0.8,-101.3,258.7,1024,1024,1024,1024,1024,,,,,
70,7.3,0m 7.3s,0,0,P-GPS,5.2,1.6,6.2,1.9,0.0,0.0,0.0,0.0,0.0,0.0,0,0,4,0,95,15.813,0.025,3.943,3.956,3.968,3.946,0,0,0,-2.7,-0.3,-101.3,258.7,1024,1024,1024,1024,1024,,,,,
71,7.4,0m 7.4s,0,0,P-GPS,5.2,1.6,6.2,1.9,0.0,0.0,0.0,0.0,0.0,0.0,0,0,5,0,95,15.813,0.025,3.943,3.956,3.968,3.946,0,0,0,-2.7,-0.2,-101.4,258.6,1024,1024,1024,1024,1024,,,,,
72,7.5,0m 7.5s,0,0,P-GPS,5.2,1.6,6.2,1.9,0.0,0.0,0.0,0.0,0.0,0.0,0,0,5,0,95,15.813,0.025,3.943,3.956,3.968,3.946,0,0,0,-2.5,-0.6,-101.4,258.6,1024,1024,1024,1024,1024,,,,,
73,7.6,0m 7.6s,0,0,P-GPS,5.2,1.6,6.2,1.9,0.0,0.0,0.0,0.0,0.0,0.0,0,0,5,0,95,15.813,0.025,3.943,3.956,3.968,3.946,0,0,0,-2.2,-1,-101.4,258.6,1024,1024,1024,1024,1024,,,,,
74,7.7,0m 7.7s,0,0,P-GPS,5.2,1.6,6.2,1.9,0.0,0.0,0.0,0.0,0.0,0.0,0,0,5,0,95,15.813,0.025,3.943,3.956,3.968,3.946,0,0,0,-1.9,-1.1,-101.3,258.7,1024,1024,1024,1024,1024,,,,,
75,7.8,0m 7.8s,0,0,P-GPS,5.2,1.6,6.2,1.9,0.0,0.0,0.0,0.0,0.0,0.0,0,0,5,0,95,15.813,0.025,3.943,3.956,3.968,3.946,0,0,0,-1.9,-0.8,-101.4,258.6,1024,1024,1024,1024,1024,,,,,
76,7.9,0m 7.9s,0,0,P-GPS,5.2,1.6,6.2,1.9,0.0,0.0,0.0,0.0,0.0,0.0,0,0,5,0,95,15.813,0.025,3.943,3.956,3.968,3.946,0,0,0,-2,-0.5,-101.4,258.6,1024,1024,1024,1024,1024,,,,,
77,8,0m 8s,0,0,P-GPS,5.2,1.6,6.2,1.9,0.0,0.0,0.0,0.0,0.0,0.0,0,0,5,0,95,15.813,0.025,3.943,3.956,3.968,3.946,0,0,0,-2.2,-0.2,-101.4,258.6,1024,1024,1024,1024,1024,,,,,
78,8.1,0m 8.1s,0,0,P-GPS,5.2,1.6,6.2,1.9,0.0,0.0,0.0,0.0,0.0,0.0,0,0,5,0,95,15.813,0.025,3.943,3.956,3.968,3.946,0,0,0,-2.5,-0.2,-101.4,258.6,1024,1024,1024,1024,1024,,,,,
79,8.2,0m 8.2s,0,0,P-GPS,5.2,1.6,6.2,1.9,0.0,0.0,0.0,0.0,0.0,0.0,0,0,5,0,95,15.813,0.025,3.943,3.956,3.968,3.946,0,0,0,-2.5,-0.3,-101.4,258.6,1024,1024,1024,1024,1024,,,,,
80,8.3,0m 8.3s,0,0,P-GPS,5.2,1.6,6.2,1.9,0.0,0.0,0.0,0.0,0.0,0.0,0,0,5,0,95,15.813,0.025,3.943,3.956,3.968,3.946,0,0,0,-2.5,-0.2,-101.3,258.7,1024,1024,1024,1024,1024,,,,Weak GPS signal. Positional accuracy may be compromised. Please fly with caution.,
81,8.4,0m 8.4s,0,0,P-GPS,5.2,1.6,6.2,1.9,0.0,0.0,0.0,0.0,0.0,0.0,0,0,5,0,95,15.813,0.025,3.943,3.956,3.968,3.946,0,0,0,-2.5,0.2,-101.3,258.7,1024,1024,1024,1024,1024,,,,,
82,8.5,0m 8.5s,0,0,P-GPS,5.2,1.6,6.2,1.9,0.0,0.0,0.0,0.0,0.0,0.0,0,0,5,0,95,15.813,0.025,3.943,3.956,3.968,3.946,0,0,0,-2.7,0.6,-101.3,258.7,1024,1024,1024,1024,1024,,,,,
83,8.6,0m 8.6s,0,0,P-GPS,5.2,1.6,6.2,1.9,0.0,0.0,0.0,0.0,0.0,0.0,0,0,5,0,95,15.813,0.025,3.943,3.956,3.968,3.946,0,0,0,-2.8,0.8,-101.4,258.6,1024,1024,1024,1024,1024,,,,,
84,8.7,0m 8.7s,0,0,P-GPS,5.2,1.6,6.2,1.9,0.0,0.0,0.0,0.0,0.0,0.0,0,0,5,0,95,15.813,0.025,3.943,3.956,3.968,3.946,0,0,0,-2.8,0.6,-101.4,258.6,1024,1024,1024,1024,1024,,,,,
85,8.8,0m 8.8s,0,0,P-GPS,5.2,1.6,6.2,1.9,0.0,0.0,0.0,0.0,0.0,0.0,0,0,5,0,95,15.813,0.025,3.943,3.956,3.968,3.946,0,0,0,-2.6,0.1,-101.4,258.6,1024,1024,1024,1024,1024,,,,,
86,8.9,0m 8.9s,0,0,P-GPS,5.2,1.6,6.2,1.9,0.0,0.0,0.0,0.0,0.0,0.0,0,0,5,0,95,15.813,0.025,3.943,3.956,3.968,3.946,0,0,0,-2.3,0,-101.4,258.6,1024,1024,1024,1024,1024,,,,,
87,9,0m 9s,0,0,P-GPS,5.2,1.6,6.2,1.9,0.0,0.0,0.0,0.0,0.0,0.0,0,0,5,0,95,15.813,0.025,3.943,3.956,3.968,3.946,0,0,0,-2.1,-0.1,-101.3,258.7,1024,1024,1024,1024,1024,,,,,
88,9.1,0m 9.1s,0,0,P-GPS,5.2,1.6,6.2,1.9,0.0,0.0,0.0,0.0,0.0,0.0,0,0,5,0,95,15.813,0.025,3.943,3.956,3.968,3.946,0,0,0,-2.4,-0.2,-101.3,258.7,1024,1024,1024,1024,1024,,,,,
89,9.2,0m 9.2s,0,0,P-GPS,5.2,1.6,5.9,1.8,0.0,0.0,0.0,0.0,0.0,0.0,0,0,5,0,95,15.813,0.025,3.943,3.956,3.968,3.946,0,0,0,-2.7,-0.3,-101.3,258.7,1024,1024,1024,1024,1024,,,,,
90,9.3,0m 9.3s,0,0,P-GPS,5.2,1.6,5.9,1.8,0.0,0.0,0.0,0.0,0.0,0.0,0,0,5,0,95,15.781,0.026,3.935,3.948,3.961,3.937,0,0,0,-2.6,-0.3,-101.3,258.7,1024,1024,1024,1024,1024,,,,,
91,9.4,0m 9.4s,0,0,P-GPS,5.2,1.6,5.9,1.8,0.0,0.0,0.0,0.0,0.0,0.0,0,0,5,0,95,15.781,0.026,3.935,3.948,3.961,3.937,0,0,0,-2.3,-0.4,-101.3,258.7,1024,1024,1024,1024,1024,,,,,
92,9.5,0m 9.5s,0,0,P-GPS,5.2,1.6,5.9,1.8,0.0,0.0,0.0,0.0,0.0,0.0,0,0,5,0,95,15.781,0.026,3.935,3.948,3.961,3.937,0,0,0,-1.8,-0.4,-101.3,258.7,1024,1024,1024,1024,1024,,,,,
93,9.6,0m 9.6s,0,0,P-GPS,5.2,1.6,5.9,1.8,0.0,0.0,0.0,0.0,0.0,0.0,0,0,5,0,95,15.781,0.026,3.935,3.948,3.961,3.937,0,0,0,-1.5,-0.4,-101.3,258.7,1024,1024,1024,1024,1024,,,,,
94,9.7,0m 9.7s,0,0,P-GPS,5.2,1.6,5.9,1.8,0.0,0.0,0.0,0.0,0.0,0.0,0,0,5,0,95,15.781,0.026,3.935,3.948,3.961,3.937,0,0,0,-1.8,-0.4,-101.2,258.8,1024,1024,1024,1024,1024,,,,,
95,9.8,0m 9.8s,0,0,P-GPS,5.2,1.6,6.2,1.9,0.0,0.0,0.0,0.0,0.0,0.0,0,0,5,0,95,15.781,0.026,3.935,3.948,3.961,3.937,0,0,0,-2.2,-0.2,-101.2,258.8,1024,1024,1024,1024,1024,,,,,
96,9.9,0m 9.9s,0,0,P-GPS,5.2,1.6,6.2,1.9,0.0,0.0,0.0,0.0,0.0,0.0,0,0,5,0,95,15.781,0.026,3.935,3.948,3.961,3.937,0,0,0,-2.2,0,-101.1,258.9,1024,1024,1024,1024,1024,,,,,
97,10,0m 10s,0,0,P-GPS,5.2,1.6,6.2,1.9,0.0,0.0,0.0,0.0,0.0,0.0,0,0,5,0,95,15.781,0.026,3.935,3.948,3.961,3.937,0,0,0,-2,0.2,-101.1,258.9,1024,1024,1024,1024,1024,,,,,
98,10.1,0m 10.1s,0,0,P-GPS,5.2,1.6,6.2,1.9,0.0,0.0,0.0,0.0,0.0,0.0,0,0,5,0,95,15.781,0.026,3.935,3.948,3.961,3.937,0,0,0,-1.7,0.1,-101.1,258.9,1024,1024,1024,1024,1024,,,,,
99,10.2,0m 10.2s,0,0,P-GPS,5.2,1.6,6.2,1.9,0.0,0.0,0.0,0.0,0.0,0.0,0,0,5,0,95,15.781,0.026,3.935,3.948,3.961,3.937,0,0,0,-1.7,-0.1,-101,259,1024,1024,1024,1024,1024,,,,,
100,10.3,0m 10.3s,0,0,P-GPS,5.2,1.6,6.2,1.9,0.0,0.0,0.0,0.0,0.0,0.0,0,0,5,0,95,15.745,0.027,3.925,3.938,3.952,3.93,0,0,0,-2.1,-0.2,-100.9,259.1,1024,1024,1024,1024,1024,,,,,
101,10.4,0m 10.4s,0,0,P-GPS,5.2,1.6,6.2,1.9,0.0,0.0,0.0,0.0,0.0,0.0,0,0,5,0,95,15.745,0.027,3.925,3.938,3.952,3.93,0,0,0,-2.5,-0.2,-100.9,259.1,1024,1024,1024,1024,1024,,,,,
102,10.5,0m 10.5s,0,0,P-GPS,5.2,1.6,6.2,1.9,0.0,0.0,0.0,0.0,0.0,0.0,0,0,5,0,95,15.745,0.027,3.925,3.938,3.952,3.93,0,0,0,-2.1,-0.1,-100.9,259.1,1024,1024,1024,1024,1024,,,,,
103,10.6,0m 10.6s,0,0,P-GPS,5.2,1.6,6.2,1.9,0.0,0.0,0.0,0.0,0.0,0.0,0,0,5,0,95,15.745,0.027,3.925,3.938,3.952,3.93,0,0,0,-1.4,-0.4,-101.1,258.9,1024,1024,1024,1024,1024,,,,,
104,10.7,0m 10.7s,0,0,P-GPS,5.2,1.6,6.2,1.9,0.0,0.0,0.0,0.0,0.0,0.0,0,0,5,0,95,15.745,0.027,3.925,3.938,3.952,3.93,0,0,0,-0.8,-0.7,-101.2,258.8,1024,1024,1024,1024,1024,,,,,
105,10.8,0m 10.8s,0,0,P-GPS,5.2,1.6,6.2,1.9,0.0,0.0,0.0,0.0,0.0,0.0,0,0,5,0,95,15.745,0.027,3.925,3.938,3.952,3.93,0,0,0,-1.1,-0.8,-101.3,258.7,1024,1024,1024,1024,1024,,,,,
106,10.9,0m 10.9s,0,0,P-GPS,5.2,1.6,6.2,1.9,0.0,0.0,0.0,0.0,0.0,0.0,0,0,5,0,95,15.745,0.027,3.925,3.938,3.952,3.93,0,0,0,-1.6,-0.5,-101.3,258.7,1024,1024,1024,1024,1024,,,,,
107,11,0m 11s,0,0,P-GPS,5.2,1.6,6.2,1.9,0.0,0.0,0.0,0.0,0.0,0.0,0,0,5,0,95,15.745,0.027,3.925,3.938,3.952,3.93,0,0,0,-2.1,-0.1,-101.4,258.6,1024,1024,1024,1024,1024,,,,,
108,11.1,0m 11.1s,0,0,P-GPS,5.2,1.6,6.2,1.9,0.0,0.0,0.0,0.0,0.0,0.0,0,0,5,0,95,15.745,0.027,3.925,3.938,3.952,3.93,0,0,0,-2.2,-0.1,-101.4,258.6,1024,1024,1024,1024,1024,,,,,
109,11.2,0m 11.2s,0,0,P-GPS,5.2,1.6,6.2,1.9,0.0,0.0,0.0,0.0,0.0,0.0,0,0,5,0,95,15.745,0.027,3.925,3.938,3.952,3.93,0,0,0,-1.8,-0.2,-101.4,258.6,1024,1024,1024,1024,1024,,,,,
110,11.3,0m 11.3s,0,0,P-GPS,5.2,1.6,6.2,1.9,0.0,0.0,0.0,0.0,0.0,0.0,0,0,5,0,95,15.697,0.029,3.912,3.927,3.941,3.917,0,0,0,-1.4,-0.3,-101.4,258.6,1024,1024,1024,1024,1024,,,,,
111,11.4,0m 11.4s,0,0,P-GPS,5.2,1.6,6.2,1.9,0.0,0.0,0.0,0.0,0.0,0.0,0,0,5,0,95,15.697,0.029,3.912,3.927,3.941,3.917,0,0,0,-1.5,-0.2,-101.4,258.6,1024,1024,1024,1024,1024,,,,,
112,11.5,0m 11.5s,0,0,P-GPS,5.2,1.6,6.2,1.9,0.0,0.0,0.0,0.0,0.0,0.0,0,0,5,0,95,15.697,0.029,3.912,3.927,3.941,3.917,0,0,0,-1.9,0,-101.4,258.6,1024,1024,1024,1024,1024,,,,,
113,11.6,0m 11.6s,0,0,P-GPS,5.2,1.6,6.2,1.9,0.0,0.0,0.0,0.0,0.0,0.0,0,0,5,0,95,15.697,0.029,3.912,3.927,3.941,3.917,0,0,0,-2.1,0.1,-101.4,258.6,1024,1024,1024,1024,1024,,,,,
114,11.7,0m 11.7s,0,0,P-GPS,5.2,1.6,6.2,1.9,0.0,0.0,0.0,0.0,0.0,0.0,0,0,5,0,95,15.697,0.029,3.912,3.927,3.941,3.917,0,0,0,-1.8,0,-101.5,258.5,1024,1024,1024,1024,1024,,,,,
115,11.8,0m 11.8s,0,0,P-GPS,5.2,1.6,6.2,1.9,0.0,0.0,0.0,0.0,0.0,0.0,0,0,5,0,95,15.697,0.029,3.912,3.927,3.941,3.917,0,0,0,-1.3,-0.4,-101.5,258.5,1024,1024,1024,1024,1024,,,,,
116,11.9,0m 11.9s,0,0,P-GPS,5.2,1.6,6.2,1.9,0.0,0.0,0.0,0.0,0.0,0.0,0,0,5,0,95,15.697,0.029,3.912,3.927,3.941,3.917,0,0,0,-0.9,-0.7,-101.5,258.5,1024,1024,1024,1024,1024,,,,,
117,12,0m 12s,0,0,P-GPS,5.2,1.6,6.2,1.9,0.0,0.0,0.0,0.0,0.0,0.0,0,0,5,0,95,15.697,0.029,3.912,3.927,3.941,3.917,0,0,0,-1,-0.7,-101.5,258.5,1024,1024,1024,1024,1024,,,,,
118,12.1,0m 12.1s,0,0,P-GPS,5.2,1.6,6.2,1.9,0.0,0.0,0.0,0.0,0.0,0.0,0,0,5,0,95,15.697,0.029,3.912,3.927,3.941,3.917,0,0,0,-1.2,-0.3,-101.5,258.5,1024,1024,1024,1024,1024,,,,,
119,12.2,0m 12.2s,0,0,P-GPS,5.2,1.6,6.2,1.9,0.0,0.0,0.0,0.0,0.0,0.0,0,0,5,0,95,15.697,0.029,3.912,3.927,3.941,3.917,0,0,0,-1.3,0.2,-101.4,258.6,1024,1024,1024,1024,1024,,,,,
120,12.3,0m 12.3s,0,0,P-GPS,5.2,1.6,6.2,1.9,0.0,0.0,0.0,0.0,0.0,0.0,0,0,5,0,95,15.697,0.029,3.912,3.927,3.941,3.917,0,0,0,-1.5,0.6,-101.5,258.5,1024,1024,1024,1024,1024,,,,,
121,12.4,0m 12.4s,0,0,P-GPS,5.2,1.6,6.2,1.9,0.0,0.0,0.0,0.0,0.0,0.0,0,0,5,0,95,15.697,0.029,3.912,3.927,3.941,3.917,0,0,0,-1.5,0.7,-101.5,258.5,1024,1024,1024,1024,1024,,,,,
122,12.5,0m 12.5s,0,0,P-GPS,5.2,1.6,6.2,1.9,0.0,0.0,0.0,0.0,0.0,0.0,0,0,5,0,95,15.697,0.029,3.912,3.927,3.941,3.917,0,0,0,-1.4,0.5,-101.5,258.5,1024,1024,1024,1024,1024,,,,,
123,12.6,0m 12.6s,0,0,P-GPS,5.2,1.6,6.2,1.9,0.0,0.0,0.0,0.0,0.0,0.0,0,0,5,0,95,15.697,0.029,3.912,3.927,3.941,3.917,0,0,0,-1.4,0.5,-101.5,258.5,1024,1024,1024,1024,1024,,,,,
124,12.7,0m 12.7s,0,0,P-GPS,5.2,1.6,6.2,1.9,0.0,0.0,0.0,0.0,0.0,0.0,0,0,5,0,95,15.697,0.029,3.912,3.927,3.941,3.917,0,0,0,-1.6,0.5,-101.4,258.6,1024,1024,1024,1024,1024,,,,,
125,12.8,0m 12.8s,0,0,P-GPS,5.2,1.6,6.2,1.9,0.0,0.0,0.0,0.0,0.0,0.0,0,0,5,0,95,15.697,0.029,3.912,3.927,3.941,3.917,0,0,0,-1.8,0.6,-101.4,258.6,1024,1024,1024,1024,1024,,,,,
126,12.9,0m 12.9s,0,0,P-GPS,5.2,1.6,6.2,1.9,0.0,0.0,0.0,0.0,0.0,0.0,0,0,5,0,95,15.697,0.029,3.912,3.927,3.941,3.917,0,0,0,-1.8,0.8,-101.4,258.6,1024,1024,1024,1024,1024,,,,,
127,13,0m 13s,0,0,P-GPS,5.2,1.6,6.2,1.9,0.0,0.0,0.0,0.0,0.0,0.0,0,0,5,0,95,15.697,0.029,3.912,3.927,3.941,3.917,0,0,0,-1.7,1,-101.4,258.6,1024,1024,1024,1024,1024,,,,,
128,13.1,0m 13.1s,0,0,P-GPS,5.2,1.6,6.2,1.9,0.0,0.0,0.0,0.0,0.0,0.0,0,0,5,0,95,15.697,0.029,3.912,3.927,3.941,3.917,0,0,0,-1.9,1.1,-101.5,258.5,1024,1024,1024,1024,1024,,,,,
129,13.2,0m 13.2s,0,0,P-GPS,5.2,1.6,6.2,1.9,0.0,0.0,0.0,0.0,0.0,0.0,0,0,5,0,95,15.697,0.029,3.912,3.927,3.941,3.917,0,0,0,-2.3,1,-101.5,258.5,1024,1024,1024,1024,1024,,,,,
130,13.3,0m 13.3s,0,0,P-GPS,5.2,1.6,6.2,1.9,0.0,0.0,0.0,0.0,0.0,0.0,0,0,5,0,95,15.67,0.031,3.904,3.919,3.935,3.912,0,0,0,-2.8,0.9,-101.6,258.4,1024,1024,1024,1024,1024,,,,,
131,13.4,0m 13.4s,0,0,P-GPS,5.2,1.6,6.2,1.9,0.0,0.0,0.0,0.0,0.0,0.0,0,0,5,0,95,15.67,0.031,3.904,3.919,3.935,3.912,0,0,0,-2.8,0.8,-101.6,258.4,1024,1024,1024,852,1024,,,,,
132,13.5,0m 13.5s,0,0,P-GPS,5.2,1.6,6.2,1.9,0.0,0.0,0.0,0.0,0.0,0.0,0,0,5,0,95,15.67,0.031,3.904,3.919,3.935,3.912,0,0,0,-2.2,0.8,-101.5,258.5,1024,1024,1024,616,1024,,,,,
133,13.6,0m 13.6s,0,0,P-GPS,5.2,1.6,6.2,1.9,0.0,0.0,0.0,0.0,0.0,0.0,0,0,5,0,95,15.67,0.031,3.904,3.919,3.935,3.912,0,0,0,-1.7,0.6,-101.6,258.4,1024,1024,1024,582,1024,,,,,
134,13.7,0m 13.7s,0,0,P-GPS,5.2,1.6,6.2,1.9,0.0,0.0,0.0,0.0,0.0,0.0,0,0,5,0,95,15.67,0.031,3.904,3.919,3.935,3.912,0,0,0,-1.9,0.4,-103.2,256.8,1024,1024,1024,618,1024,,,,,
135,13.8,0m 13.8s,0,0,P-GPS,5.2,1.6,6.2,1.9,0.0,0.0,0.0,0.0,0.0,0.0,0,0,5,0,95,15.67,0.031,3.904,3.919,3.935,3.912,0,0,0,-2.4,0.5,-107.4,252.6,1024,1024,1024,978,1024,,,,,
136,13.9,0m 13.9s,0,0,P-GPS,5.2,1.6,6.2,1.9,0.0,0.0,0.0,0.0,0.0,0.0,0,0,5,0,95,15.67,0.031,3.904,3.919,3.935,3.912,0,0,0,-2.7,1.3,-111.7,248.3,1024,1024,1024,1024,1024,,,,,
137,14,0m 14s,0,0,P-GPS,5.2,1.6,6.2,1.9,0.0,0.0,0.0,0.0,0.0,0.0,0,0,5,0,95,15.67,0.031,3.904,3.919,3.935,3.912,0,0,0,-2.5,2,-113.4,246.6,1024,1024,1024,1024,1024,,,,,
138,14.1,0m 14.1s,0,0,P-GPS,5.2,1.6,6.2,1.9,0.0,0.0,0.0,0.0,0.0,0.0,0,0,5,0,95,15.67,0.031,3.904,3.919,3.935,3.912,0,0,0,-2.1,2.1,-113.5,246.5,1024,1024,1024,1024,1024,,,,,
139,14.2,0m 14.2s,0,0,P-GPS,5.2,1.6,6.2,1.9,0.0,0.0,0.0,0.0,0.0,0.0,0,0,5,0,95,15.67,0.031,3.904,3.919,3.935,3.912,0,0,0,-1.5,1.3,-113.5,246.5,1024,1024,1024,1024,1024,,,,,
140,14.3,0m 14.3s,0,0,P-GPS,5.2,1.6,6.2,1.9,0.0,0.0,0.0,0.0,0.0,0.0,0,0,5,0,94,15.633,0.03,3.895,3.911,3.925,3.902,0,0,0,-1,0.5,-113.4,246.6,1024,1024,1024,1024,1024,,,,,
141,14.4,0m 14.4s,0,0,P-GPS,5.2,1.6,6.2,1.9,0.0,0.0,0.0,0.0,0.0,0.0,0,0,5,0,94,15.633,0.03,3.895,3.911,3.925,3.902,0,0,0,-1.1,0.4,-113.5,246.5,1024,1024,1024,1024,1024,,,,,
142,14.5,0m 14.5s,0,0,P-GPS,5.2,1.6,6.2,1.9,0.0,0.0,0.0,0.0,0.0,0.0,0,0,5,0,94,15.633,0.03,3.895,3.911,3.925,3.902,0,0,0,-1.8,0.8,-113.5,246.5,1024,1024,1024,1024,1024,,,,,
143,14.6,0m 14.6s,0,0,P-GPS,5.2,1.6,6.2,1.9,0.0,0.0,0.0,0.0,0.0,0.0,0,0,5,0,94,15.633,0.03,3.895,3.911,3.925,3.902,0,0,0,-2.4,1.1,-113.6,246.4,1024,1024,1024,1024,1024,,,,,
144,14.7,0m 14.7s,0,0,P-GPS,5.2,1.6,6.2,1.9,0.0,0.0,0.0,0.0,0.0,0.0,0,0,5,0,94,15.633,0.03,3.895,3.911,3.925,3.902,0,0,0,-2.6,1,-113.6,246.4,1024,1024,1024,1024,1024,,,,,
145,14.8,0m 14.8s,0,0,P-GPS,5.2,1.6,6.2,1.9,0.0,0.0,0.0,0.0,0.0,0.0,0,0,5,0,94,15.633,0.03,3.895,3.911,3.925,3.902,0,0,0,-2.2,0.6,-113.6,246.4,1024,1024,1024,1024,1024,,,,,
146,14.9,0m 14.9s,0,0,P-GPS,5.2,1.6,6.2,1.9,0.0,0.0,0.0,0.0,0.0,0.0,0,0,5,0,94,15.633,0.03,3.895,3.911,3.925,3.902,0,0,0,-1.7,0.3,-113.6,246.4,1024,1024,1024,1024,1024,,,,,
147,15,0m 15s,0,0,P-GPS,5.2,1.6,6.2,1.9,0.0,0.0,0.0,0.0,0.0,0.0,0,0,5,0,94,15.633,0.03,3.895,3.911,3.925,3.902,0,0,0,-1.4,0.3,-113.6,246.4,1024,1024,1024,1024,1024,,,,,
148,15.1,0m 15.1s,0,0,P-GPS,5.2,1.6,5.9,1.8,0.0,0.0,0.0,0.0,0.0,0.0,0,0,5,0,94,15.633,0.03,3.895,3.911,3.925,3.902,0,0,0,-1.7,0.4,-113.6,246.4,1024,1024,1024,1024,1024,,,,,
149,15.2,0m 15.2s,0,0,P-GPS,5.2,1.6,5.9,1.8,0.0,0.0,0.0,0.0,0.0,0.0,0,0,5,0,94,15.633,0.03,3.895,3.911,3.925,3.902,0,0,0,-2.1,0.5,-113.6,246.4,1024,1024,1024,1024,1024,,,,,
150,15.3,0m 15.3s,0,0,P-GPS,5.2,1.6,5.9,1.8,0.0,0.0,0.0,0.0,0.0,0.0,0,0,5,0,94,15.633,0.03,3.895,3.911,3.925,3.902,0,0,0,-2.1,0.3,-113.5,246.5,1024,1024,1024,1024,1024,,,,,
151,15.4,0m 15.4s,0,0,P-GPS,5.2,1.6,5.9,1.8,0.0,0.0,0.0,0.0,0.0,0.0,0,0,5,0,94,15.633,0.03,3.895,3.911,3.925,3.902,0,0,0,-1.9,0.2,-113.5,246.5,1024,1024,1024,1024,1024,,,,,
152,15.5,0m 15.5s,0,0,P-GPS,5.2,1.6,5.9,1.8,0.0,0.0,0.0,0.0,0.0,0.0,0,0,5,0,94,15.633,0.03,3.895,3.911,3.925,3.902,0,0,0,-1.6,0.5,-113.5,246.5,1024,1024,1024,1024,1024,,,,,
153,15.6,0m 15.6s,0,0,P-GPS,5.2,1.6,5.9,1.8,0.0,0.0,0.0,0.0,0.0,0.0,0,0,5,0,94,15.633,0.03,3.895,3.911,3.925,3.902,0,0,0,-1.7,0.8,-113.5,246.5,1024,1024,1024,1024,1024,,,,,
154,15.7,0m 15.7s,0,0,P-GPS,5.2,1.6,6.2,1.9,0.0,0.0,0.0,0.0,0.0,0.0,0,0,5,0,94,15.633,0.03,3.895,3.911,3.925,3.902,0,0,0,-1.9,0.8,-113.6,246.4,1024,1024,1024,1024,1024,,,,,
155,15.8,0m 15.8s,0,0,P-GPS,5.2,1.6,5.9,1.8,0.0,0.0,0.0,0.0,0.0,0.0,0,0,5,0,94,15.633,0.03,3.895,3.911,3.925,3.902,0,0,0,-2.1,0.7,-113.6,246.4,1024,1024,1024,1024,1024,,,,,
156,15.9,0m 15.9s,0,0,P-GPS,5.2,1.6,5.9,1.8,0.0,0.0,0.0,0.0,0.0,0.0,0,0,5,0,94,15.633,0.03,3.895,3.911,3.925,3.902,0,0,0,-1.9,0.6,-113.5,246.5,1024,1024,1024,1024,1024,,,,,
157,16,0m 16s,0,0,P-GPS,5.2,1.6,5.9,1.8,0.0,0.0,0.0,0.0,0.0,0.0,0,0,5,0,94,15.633,0.03,3.895,3.911,3.925,3.902,0,0,0,-1.7,0.7,-113.5,246.5,1024,1024,1024,1024,1024,,,,,
158,16.1,0m 16.1s,0,0,P-GPS,5.2,1.6,5.9,1.8,0.0,0.0,0.0,0.0,0.0,0.0,0,0,5,0,94,15.633,0.03,3.895,3.911,3.925,3.902,0,0,0,-1.8,1,-113.5,246.5,1024,1024,1024,1024,1024,,,,,
159,16.2,0m 16.2s,0,0,P-GPS,5.2,1.6,5.9,1.8,0.0,0.0,0.0,0.0,0.0,0.0,0,0,5,0,94,15.633,0.03,3.895,3.911,3.925,3.902,0,0,0,-2,1.1,-113.5,246.5,1024,1024,1024,1024,1024,,,,,
160,16.3,0m 16.3s,0,0,P-GPS,5.2,1.6,5.9,1.8,0.0,0.0,0.0,0.0,0.0,0.0,0,0,5,0,94,15.609,0.032,3.889,3.904,3.921,3.895,0,0,0,-2.2,0.8,-113.5,246.5,1024,1024,1024,1024,1024,,,,,
161,16.4,0m 16.4s,0,0,P-GPS,5.2,1.6,5.9,1.8,0.0,0.0,0.0,0.0,0.0,0.0,0,0,5,0,94,15.609,0.032,3.889,3.904,3.921,3.895,0,0,0,-2.3,0.7,-113.5,246.5,1024,1024,1024,1024,1024,,,,,
162,16.5,0m 16.5s,0,0,P-GPS,5.2,1.6,5.9,1.8,0.0,0.0,0.0,0.0,0.0,0.0,0,0,5,0,94,15.609,0.032,3.889,3.904,3.921,3.895,0,0,0,-2.1,0.9,-113.5,246.5,1024,1024,1024,1024,1024,,,,,
163,16.6,0m 16.6s,0,0,P-GPS,5.2,1.6,5.9,1.8,0.0,0.0,0.0,0.0,0.0,0.0,0,0,5,0,94,15.609,0.032,3.889,3.904,3.921,3.895,0,0,0,-1.8,1.2,-113.5,246.5,1024,1024,1024,1024,1024,,,,,
164,16.7,0m 16.7s,0,0,P-GPS,5.2,1.6,5.9,1.8,0.0,0.0,0.0,0.0,0.0,0.0,0,0,5,0,94,15.609,0.032,3.889,3.904,3.921,3.895,0,0,0,-1.7,1.3,-113.5,246.5,1024,1024,1024,1024,1024,,,,,
165,16.8,0m 16.8s,0,0,P-GPS,5.2,1.6,5.9,1.8,0.0,0.0,0.0,0.0,0.0,0.0,0,0,5,0,94,15.609,0.032,3.889,3.904,3.921,3.895,0,0,0,-1.7,1.1,-113.6,246.4,1024,1024,1024,1024,1024,,,,,
166,16.9,0m 16.9s,0,0,P-GPS,5.2,1.6,5.9,1.8,0.0,0.0,0.0,0.0,0.0,0.0,0,0,5,0,94,15.609,0.032,3.889,3.904,3.921,3.895,0,0,0,-1.8,1.1,-113.6,246.4,1024,1024,1024,1024,1024,,,,,
167,17,0m 17s,0,0,P-GPS,5.2,1.6,5.9,1.8,0.0,0.0,0.0,0.0,0.0,0.0,0,0,5,0,94,15.609,0.032,3.889,3.904,3.921,3.895,0,0,0,-1.8,1.3,-113.6,246.4,1024,1024,1024,1024,1024,,,,,
168,17.1,0m 17.1s,0,0,P-GPS,5.2,1.6,6.2,1.9,0.0,0.0,0.0,0.0,0.0,0.0,0,0,5,0,94,15.609,0.032,3.889,3.904,3.921,3.895,0,0,0,-2.1,1.5,-113.6,246.4,1024,1024,1024,1024,1024,,,,,
169,17.2,0m 17.2s,0,0,P-GPS,5.2,1.6,6.2,1.9,0.0,0.0,0.0,0.0,0.0,0.0,0,0,5,0,94,15.609,0.032,3.889,3.904,3.921,3.895,0,0,0,-2.1,1.2,-113.6,246.4,1024,1024,1024,1024,1024,,,,,
170,17.3,0m 17.3s,0,0,P-GPS,5.2,1.6,6.2,1.9,0.0,0.0,0.0,0.0,0.0,0.0,0,0,5,0,94,15.581,0.033,3.881,3.898,3.914,3.888,0,0,0,-1.9,0.9,-113.6,246.4,1024,1024,1024,1024,1024,,,,,
171,17.4,0m 17.4s,0,0,P-GPS,5.2,1.6,5.9,1.8,0.0,0.0,0.0,0.0,0.0,0.0,0,0,5,0,94,15.581,0.033,3.881,3.898,3.914,3.888,0,0,0,-1.5,0.7,-113.5,246.5,1024,1024,1024,1024,1024,,,,,
172,17.5,0m 17.5s,0,0,P-GPS,5.2,1.6,5.9,1.8,0.0,0.0,0.0,0.0,0.0,0.0,0,0,5,0,94,15.581,0.033,3.881,3.898,3.914,3.888,0,0,0,-1.6,0.8,-113.5,246.5,1024,1024,1024,1024,1024,,,,,
173,17.6,0m 17.6s,0,0,P-GPS,5.2,1.6,5.9,1.8,0.0,0.0,0.0,0.0,0.0,0.0,0,0,5,0,94,15.581,0.033,3.881,3.898,3.914,3.888,0,0,0,-2,0.9,-113.5,246.5,1024,1024,1024,1024,1024,,,,,
174,17.7,0m 17.7s,0,0,P-GPS,5.2,1.6,6.2,1.9,0.0,0.0,0.0,0.0,0.0,0.0,0,0,5,0,94,15.581,0.033,3.881,3.898,3.914,3.888,0,0,0,-2.3,0.8,-113.5,246.5,1024,1024,1024,1024,1024,,,,,
175,17.8,0m 17.8s,0,0,P-GPS,5.2,1.6,5.9,1.8,0.0,0.0,0.0,0.0,0.0,0.0,0,0,5,0,94,15.581,0.033,3.881,3.898,3.914,3.888,0,0,0,-2.3,0.7,-113.5,246.5,1024,1024,1024,1024,1024,,,,,
176,17.9,0m 17.9s,0,0,P-GPS,5.2,1.6,5.9,1.8,0.0,0.0,0.0,0.0,0.0,0.0,0,0,5,0,94,15.581,0.033,3.881,3.898,3.914,3.888,0,0,0,-1.9,0.8,-113.4,246.6,1024,1024,1024,1024,1024,,,,,
177,18,0m 18s,0,0,P-GPS,5.2,1.6,5.9,1.8,0.0,0.0,0.0,0.0,0.0,0.0,0,0,5,0,94,15.581,0.033,3.881,3.898,3.914,3.888,0,0,0,-1.4,1,-113.3,246.7,1024,1024,1024,1024,1024,,,,,
178,18.1,0m 18.1s,0,0,P-GPS,5.2,1.6,5.9,1.8,0.0,0.0,0.0,0.0,0.0,0.0,0,0,5,0,94,15.581,0.033,3.881,3.898,3.914,3.888,0,0,0,-1.3,1.1,-113.3,246.7,1024,1024,1024,1024,1024,,,,,
179,18.2,0m 18.2s,0,0,P-GPS,5.2,1.6,6.2,1.9,0.0,0.0,0.0,0.0,0.0,0.0,0,0,5,0,94,15.581,0.033,3.881,3.898,3.914,3.888,0,0,0,-1.5,0.8,-113.3,246.7,1024,1024,1024,1024,1024,,,,,
180,18.3,0m 18.3s,0,0,P-GPS,5.2,1.6,5.9,1.8,0.0,0.0,0.0,0.0,0.0,0.0,0,0,5,0,94,15.558,0.034,3.875,3.892,3.909,3.882,0,0,0,-1.9,0.5,-113.3,246.7,1024,1024,1024,1024,1024,,,,,
181,18.4,0m 18.4s,0,0,P-GPS,5.2,1.6,5.9,1.8,0.0,0.0,0.0,0.0,0.0,0.0,0,0,6,0,94,15.558,0.034,3.875,3.892,3.909,3.882,0,0,0,-2.1,0.4,-113.3,246.7,1024,1024,1024,1024,1024,,,,,
182,18.5,0m 18.5s,0,0,P-GPS,5.2,1.6,5.9,1.8,0.0,0.0,0.0,0.0,0.0,0.0,0,0,6,0,94,15.558,0.034,3.875,3.892,3.909,3.882,0,0,0,-2,0.8,-113.3,246.7,1024,1024,1024,1024,1024,,,,,
183,18.6,0m 18.6s,0,0,P-GPS,5.2,1.6,6.2,1.9,0.0,0.0,0.0,0.0,0.0,0.0,0,0,5,0,94,15.558,0.034,3.875,3.892,3.909,3.882,0,0,0,-1.8,1.2,-113.4,246.6,1024,1024,1024,1024,1024,,,,,
184,18.8,0m 18.8s,0,0,P-GPS,5.2,1.6,5.9,1.8,0.0,0.0,0.0,0.0,0.0,0.0,0,0,5,0,94,15.558,0.034,3.875,3.892,3.909,3.882,0,0,0,-1.9,0.6,-113.5,246.5,1024,1024,1024,1024,1024,,,,,
185,18.9,0m 18.9s,0,0,P-GPS,5.2,1.6,5.9,1.8,0.0,0.0,0.0,0.0,0.0,0.0,0,0,5,0,94,15.558,0.034,3.875,3.892,3.909,3.882,0,0,0,-2.1,0.2,-113.5,246.5,1024,1024,1024,1024,1024,,,,,
186,19,0m 19s,0,0,P-GPS,5.2,1.6,5.9,1.8,0.0,0.0,0.0,0.0,0.0,0.0,0,0,6,0,94,15.558,0.034,3.875,3.892,3.909,3.882,0,0,0,-2.1,0.3,-113.5,246.5,1024,1024,1024,1024,1024,,,,,
187,19.1,0m 19.1s,0,0,P-GPS,5.2,1.6,5.9,1.8,0.0,0.0,0.0,0.0,0.0,0.0,0,0,6,0,94,15.558,0.034,3.875,3.892,3.909,3.882,0,0,0,-1.9,0.6,-113.5,246.5,1024,1024,1024,1024,1024,,,,,
188,19.2,0m 19.2s,0,0,P-GPS,5.2,1.6,5.9,1.8,0.0,0.0,0.0,0.0,0.0,0.0,0,0,6,0,94,15.558,0.034,3.875,3.892,3.909,3.882,0,0,0,-1.8,0.8,-113.5,246.5,1024,1024,1024,1024,1024,,,,,
189,19.3,0m 19.3s,0,0,P-GPS,5.2,1.6,5.9,1.8,0.0,0.0,0.0,0.0,0.0,0.0,0,0,6,0,94,15.558,0.034,3.875,3.892,3.909,3.882,0,0,0,-1.9,0.7,-113.5,246.5,1024,1024,1024,1024,1024,,,,,
190,19.4,0m 19.4s,0,0,P-GPS,5.2,1.6,5.9,1.8,0.0,0.0,0.0,0.0,0.0,0.0,0,0,6,0,94,15.558,0.034,3.875,3.892,3.909,3.882,0,0,0,-2.2,0.4,-113.5,246.5,1024,1024,1024,1024,1024,,,,,
191,19.5,0m 19.5s,0,0,P-GPS,5.2,1.6,6.2,1.9,0.0,0.0,0.0,0.0,0.0,0.0,0,0,6,0,94,15.558,0.034,3.875,3.892,3.909,3.882,0,0,0,-2.4,0.3,-113.5,246.5,1024,1024,1024,1024,1024,,,,,
192,19.6,0m 19.6s,0,0,P-GPS,5.2,1.6,6.2,1.9,0.0,0.0,0.0,0.0,0.0,0.0,0,0,6,0,94,15.558,0.034,3.875,3.892,3.909,3.882,0,0,0,-2.5,0.4,-113.5,246.5,1024,1024,1024,1024,1024,,,,,
193,19.7,0m 19.7s,0,0,P-GPS,5.2,1.6,5.9,1.8,0.0,0.0,0.0,0.0,0.0,0.0,0,0,6,0,94,15.558,0.034,3.875,3.892,3.909,3.882,0,0,0,-2.6,0.5,-113.5,246.5,1024,1024,1024,1024,1024,,,,,
194,19.8,0m 19.8s,0,0,P-GPS,5.2,1.6,5.9,1.8,0.0,0.0,0.0,0.0,0.0,0.0,0,0,6,0,94,15.558,0.034,3.875,3.892,3.909,3.882,0,0,0,-2.5,0.5,-113.5,246.5,1024,1024,1024,1024,1024,,,,,
195,19.9,0m 19.9s,0,0,P-GPS,5.2,1.6,5.9,1.8,0.0,0.0,0.0,0.0,0.0,0.0,0,0,6,0,94,15.558,0.034,3.875,3.892,3.909,3.882,0,0,0,-2.3,0.6,-113.5,246.5,1024,1024,1024,1024,1024,,,,,
196,20,0m 20s,0,0,P-GPS,5.2,1.6,5.9,1.8,0.0,0.0,0.0,0.0,0.0,0.0,0,0,6,0,94,15.558,0.034,3.875,3.892,3.909,3.882,0,0,0,-2.2,0.6,-113.5,246.5,1024,1024,1024,1024,1024,,,,,
197,20.2,0m 20.2s,0,0,P-GPS,5.2,1.6,5.9,1.8,0.0,0.0,0.0,0.0,0.0,0.0,0,0,6,0,94,15.558,0.034,3.875,3.892,3.909,3.882,0,0,0,-2.2,0.7,-113.5,246.5,1024,1024,1024,1024,1024,,,,,
198,20.3,0m 20.3s,0,0,P-GPS,5.2,1.6,5.9,1.8,0.0,0.0,0.0,0.0,0.0,0.0,0,0,6,0,94,15.541,0.033,3.871,3.888,3.904,3.878,0,0,0,-2.4,0.7,-113.5,246.5,1024,1024,1024,1024,1024,,,,,
199,20.4,0m 20.4s,0,0,P-GPS,5.2,1.6,5.9,1.8,0.0,0.0,0.0,0.0,0.0,0.0,0,0,6,0,94,15.541,0.033,3.871,3.888,3.904,3.878,0,0,0,-2.4,0.6,-113.5,246.5,1024,1024,1024,1024,1024,,,,,
200,20.5,0m 20.5s,0,0,P-GPS,5.2,1.6,5.9,1.8,0.0,0.0,0.0,0.0,0.0,0.0,0,0,6,0,94,15.541,0.033,3.871,3.888,3.904,3.878,0,0,0,-2.2,0.5,-113.5,246.5,1024,1024,1024,1024,1024,,,,,
201,20.6,0m 20.6s,0,0,P-GPS,5.2,1.6,5.9,1.8,0.0,0.0,0.0,0.0,0.0,0.0,0,0,6,0,94,15.541,0.033,3.871,3.888,3.904,3.878,0,0,0,-1.8,0.6,-113.5,246.5,1024,1024,1024,1024,1024,,,,,
202,20.7,0m 20.7s,0,0,P-GPS,5.2,1.6,5.9,1.8,0.0,0.0,0.0,0.0,0.0,0.0,0,0,6,0,94,15.541,0.033,3.871,3.888,3.904,3.878,0,0,0,-1.8,0.7,-113.5,246.5,1024,1024,1024,1024,1024,,,,,
203,20.8,0m 20.8s,0,0,P-GPS,5.2,1.6,5.9,1.8,0.0,0.0,0.0,0.0,0.0,0.0,0,0,6,0,94,15.541,0.033,3.871,3.888,3.904,3.878,0,0,0,-2.1,0.7,-113.5,246.5,1024,1024,1024,1024,1024,,,,,
204,20.9,0m 20.9s,0,0,P-GPS,5.2,1.6,5.9,1.8,0.0,0.0,0.0,0.0,0.0,0.0,0,0,6,0,94,15.541,0.033,3.871,3.888,3.904,3.878,0,0,0,-2.4,0.5,-113.6,246.4,1024,1024,1024,1024,1024,,,,,
205,21,0m 21s,0,0,P-GPS,5.2,1.6,5.9,1.8,0.0,0.0,0.0,0.0,0.0,0.0,0,0,6,0,94,15.541,0.033,3.871,3.888,3.904,3.878,0,0,0,-2.5,0.3,-113.6,246.4,1024,1024,1024,1024,1024,,,,,
206,21.1,0m 21.1s,0,0,P-GPS,5.2,1.6,5.9,1.8,0.0,0.0,0.0,0.0,0.0,0.0,0,0,6,0,94,15.541,0.033,3.871,3.888,3.904,3.878,0,0,0,-2.4,0.3,-113.6,246.4,1024,1024,1024,1024,1024,,,,,
207,21.2,0m 21.2s,0,0,P-GPS,5.2,1.6,5.9,1.8,0.0,0.0,0.0,0.0,0.0,0.0,0,0,7,0,94,15.541,0.033,3.871,3.888,3.904,3.878,0,0,0,-2.1,0.3,-113.7,246.3,1024,1024,1024,1024,1024,,,,,
208,21.3,0m 21.3s,0,0,P-GPS,5.2,1.6,5.9,1.8,0.0,0.0,0.0,0.0,0.0,0.0,0,0,7,0,94,15.527,0.036,3.866,3.884,3.902,3.875,0,0,0,-1.7,0.5,-113.7,246.3,1024,1024,1024,1024,1024,,,,,
209,21.4,0m 21.4s,0,0,P-GPS,5.2,1.6,5.9,1.8,0.0,0.0,0.0,0.0,0.0,0.0,0,0,7,0,94,15.527,0.036,3.866,3.884,3.902,3.875,0,0,0,-1.5,0.8,-113.7,246.3,1024,1024,1024,1024,1024,,,,,
210,21.5,0m 21.5s,0,0,P-GPS,5.2,1.6,5.9,1.8,0.0,0.0,0.0,0.0,0.0,0.0,0,0,7,0,94,15.527,0.036,3.866,3.884,3.902,3.875,0,0,0,-1.6,0.7,-113.6,246.4,1024,1024,1024,1024,1024,,,,,
211,21.6,0m 21.6s,0,0,P-GPS,5.2,1.6,5.9,1.8,0.0,0.0,0.0,0.0,0.0,0.0,0,0,7,0,94,15.527,0.036,3.866,3.884,3.902,3.875,0,0,0,-1.7,0.5,-113.6,246.4,1024,1024,1024,1024,1024,,,,,
212,21.7,0m 21.7s,0,0,P-GPS,5.2,1.6,6.2,1.9,0.0,0.0,0.0,0.0,0.0,0.0,0,0,7,0,94,15.527,0.036,3.866,3.884,3.902,3.875,0,0,0,-1.9,0.5,-113.5,246.5,1024,1024,1024,1024,1024,,,,,
213,21.8,0m 21.8s,0,0,P-GPS,5.2,1.6,6.2,1.9,0.0,0.0,0.0,0.0,0.0,0.0,0,0,7,0,94,15.527,0.036,3.866,3.884,3.902,3.875,0,0,0,-2.2,0.6,-113.5,246.5,1024,1024,1024,1024,1024,,,,,
214,21.9,0m 21.9s,0,0,P-GPS,5.2,1.6,6.2,1.9,0.0,0.0,0.0,0.0,0.0,0.0,0,0,7,0,94,15.527,0.036,3.866,3.884,3.902,3.875,0,0,0,-2.2,0.9,-113.6,246.4,1024,1024,1024,1024,1024,,,,,
215,22,0m 22s,0,0,P-GPS,5.2,1.6,6.2,1.9,0.0,0.0,0.0,0.0,0.0,0.0,0,0,7,0,94,15.527,0.036,3.866,3.884,3.902,3.875,0,0,0,-1.9,1,-113.6,246.4,1024,1024,1024,1024,1024,,,,,
216,22.1,0m 22.1s,0,0,P-GPS,5.2,1.6,6.2,1.9,0.0,0.0,0.0,0.0,0.0,0.0,0,0,7,0,94,15.527,0.036,3.866,3.884,3.902,3.875,0,0,0,-1.3,0.9,-113.6,246.4,1024,1024,1024,1024,1024,,,,,
217,22.2,0m 22.2s,0,0,P-GPS,5.2,1.6,6.2,1.9,0.0,0.0,0.0,0.0,0.0,0.0,0,0,7,0,94,15.527,0.036,3.866,3.884,3.902,3.875,0,0,0,-1.2,0.6,-113.6,246.4,1024,1024,1024,1024,1024,,,,,
218,22.3,0m 22.3s,0,0,P-GPS,5.2,1.6,6.2,1.9,0.0,0.0,0.0,0.0,0.0,0.0,0,0,7,0,94,15.513,0.035,3.863,3.881,3.898,3.871,0,0,0,-1.4,0.4,-113.5,246.5,1024,1024,1024,1024,1024,,,,,
219,22.4,0m 22.4s,0,0,P-GPS,5.2,1.6,6.2,1.9,0.0,0.0,0.0,0.0,0.0,0.0,0,0,7,0,94,15.513,0.035,3.863,3.881,3.898,3.871,0,0,0,-1.9,0.5,-113.5,246.5,1024,1024,1024,1024,1024,,,,,
220,22.5,0m 22.5s,0,0,P-GPS,5.2,1.6,6.2,1.9,0.0,0.0,0.0,0.0,0.0,0.0,0,0,10,0,94,15.513,0.035,3.863,3.881,3.898,3.871,0,0,0,-2.1,1.2,-113.5,246.5,1024,1024,1024,1024,1024,,,,,
221,22.6,0m 22.6s,0,0,P-GPS,5.2,1.6,6.2,1.9,0.0,0.0,0.0,0.0,0.0,0.0,0,0,10,0,94,15.513,0.035,3.863,3.881,3.898,3.871,0,0,0,-2.1,1.7,-113.6,246.4,1024,1024,1024,1024,1024,,,,,
222,22.7,0m 22.7s,0,0,P-GPS,5.2,1.6,6.2,1.9,0.0,0.0,0.0,0.0,0.0,0.0,0,0,10,0,94,15.513,0.035,3.863,3.881,3.898,3.871,0,0,0,-1.7,1.6,-113.6,246.4,1024,1024,1024,1024,1024,,,,,
223,22.8,0m 22.8s,0,0,P-GPS,5.2,1.6,6.2,1.9,0.0,0.0,0.0,0.0,0.0,0.0,0,0,10,0,94,15.513,0.035,3.863,3.881,3.898,3.871,0,0,0,-1.7,1.3,-113.5,246.5,1024,1024,1024,1024,1024,,,,,
224,22.9,0m 22.9s,0,0,P-GPS,5.2,1.6,6.2,1.9,0.0,0.0,0.0,0.0,0.0,0.0,0,0,10,0,94,15.513,0.035,3.863,3.881,3.898,3.871,0,0,0,-2,1.2,-113.5,246.5,1024,1024,1024,1024,1024,,,,,
225,23,0m 23s,0,0,P-GPS,5.2,1.6,6.2,1.9,0.0,0.0,0.0,0.0,0.0,0.0,0,0,10,0,94,15.513,0.035,3.863,3.881,3.898,3.871,0,0,0,-2.6,1.2,-113.5,246.5,1024,1024,1024,1024,1024,,,,,
226,23.1,0m 23.1s,0,0,P-GPS,5.2,1.6,6.2,1.9,0.0,0.0,0.0,0.0,0.0,0.0,0,0,10,0,94,15.513,0.035,3.863,3.881,3.898,3.871,0,0,0,-2.9,1.1,-113.5,246.5,1024,1024,1024,1024,1024,,,,,
227,23.2,0m 23.2s,0,0,P-GPS,5.2,1.6,5.9,1.8,0.0,0.0,0.0,0.0,0.0,0.0,0,0,10,0,94,15.513,0.035,3.863,3.881,3.898,3.871,0,0,0,-2.8,0.9,-113.5,246.5,1024,1024,1024,1024,1024,,,,,
228,23.3,0m 23.3s,0,0,P-GPS,5.2,1.6,5.9,1.8,0.0,0.0,0.0,0.0,0.0,0.0,0,0,10,0,94,15.513,0.035,3.863,3.881,3.898,3.871,0,0,0,-2.5,0.6,-113.4,246.6,1024,1024,1024,1024,1024,,,,,
229,23.4,0m 23.4s,0,0,P-GPS,5.2,1.6,5.9,1.8,0.0,0.0,0.0,0.0,0.0,0.0,0,0,10,0,94,15.513,0.035,3.863,3.881,3.898,3.871,0,0,0,-2.2,0.5,-113.4,246.6,1024,1024,1024,1024,1024,,,,,
230,23.5,0m 23.5s,0,0,P-GPS,5.2,1.6,5.9,1.8,0.0,0.0,0.0,0.0,0.0,0.0,0,0,10,0,94,15.513,0.035,3.863,3.881,3.898,3.871,0,0,0,-2.3,0.7,-113.4,246.6,1024,1024,1024,1024,1024,,,,,
231,23.6,0m 23.6s,0,0,P-GPS,5.2,1.6,5.9,1.8,0.0,0.0,0.0,0.0,0.0,0.0,0,0,10,0,94,15.513,0.035,3.863,3.881,3.898,3.871,0,0,0,-2.5,0.7,-113.5,246.5,1024,1024,1024,1024,1024,,,,,
232,23.7,0m 23.7s,0,0,P-GPS,5.2,1.6,5.9,1.8,0.0,0.0,0.0,0.0,0.0,0.0,0,0,10,0,94,15.513,0.035,3.863,3.881,3.898,3.871,0,0,0,-2.7,0.5,-113.5,246.5,1024,1024,1024,1024,1024,,,,,
233,23.8,0m 23.8s,0,0,P-GPS,5.2,1.6,5.9,1.8,0.0,0.0,0.0,0.0,0.0,0.0,0,0,10,0,94,15.513,0.035,3.863,3.881,3.898,3.871,0,0,0,-2.5,0.6,-113.5,246.5,1024,1024,1024,1024,1024,,,,,
234,23.9,0m 23.9s,0,0,P-GPS,5.2,1.6,5.9,1.8,0.0,0.0,0.0,0.0,0.0,0.0,0,0,10,0,94,15.513,0.035,3.863,3.881,3.898,3.871,0,0,0,-1.9,0.7,-113.6,246.4,1024,1024,1024,1024,1024,,,,,
235,24,0m 24s,0,0,P-GPS,5.2,1.6,5.9,1.8,0.0,0.0,0.0,0.0,0.0,0.0,0,0,10,0,94,15.513,0.035,3.863,3.881,3.898,3.871,0,0,0,-1.6,0.9,-113.6,246.4,1024,1024,1024,1024,1024,,,,,
236,24.1,0m 24.1s,0,0,P-GPS,5.2,1.6,5.9,1.8,0.0,0.0,0.0,0.0,0.0,0.0,0,0,10,0,94,15.513,0.035,3.863,3.881,3.898,3.871,0,0,0,-1.6,0.9,-113.7,246.3,1024,1024,1024,1024,1024,,,,,
237,24.2,0m 24.2s,0,0,P-GPS,5.2,1.6,5.9,1.8,0.0,0.0,0.0,0.0,0.0,0.0,0,0,10,0,94,15.513,0.035,3.863,3.881,3.898,3.871,0,0,0,-1.8,0.4,-113.7,246.3,1024,1024,1024,1024,1024,,,,,
238,24.3,0m 24.3s,0,0,P-GPS,5.2,1.6,5.9,1.8,0.0,0.0,0.0,0.0,0.0,0.0,0,0,10,0,94,15.501,0.036,3.86,3.877,3.896,3.868,0,0,0,-2.1,0,-113.7,246.3,1024,1024,1024,1024,1024,,,,,
239,24.4,0m 24.4s,0,0,P-GPS,5.2,1.6,5.9,1.8,0.0,0.0,0.0,0.0,0.0,0.0,0,0,10,0,94,15.501,0.036,3.86,3.877,3.896,3.868,0,0,0,-2.1,0,-113.6,246.4,1024,1024,1024,1024,1024,,,,,
240,24.5,0m 24.5s,56.8701604,-5.43683258,P-GPS,5.2,1.6,5.9,1.8,0.0,0.0,0.0,0.0,0.0,0.0,0,0,10,0,94,15.501,0.036,3.86,3.877,3.896,3.868,0,0,0,-2.1,0.4,-113.6,246.4,1024,1024,1024,1024,1024,,,,,
241,24.6,0m 24.6s,56.87016026,-5.43683276,P-GPS,5.2,1.6,5.9,1.8,0.0,0.0,0.0,0.0,0.0,0.0,0,0,10,0,94,15.501,0.036,3.86,3.877,3.896,3.868,0,0,0,-2.2,0.9,-113.6,246.4,1024,1024,1024,1024,1024,,,,,
242,24.7,0m 24.7s,56.87016023,-5.43683275,P-GPS,5.2,1.6,5.9,1.8,0.0,0.0,0.0,0.0,0.0,0.0,0,0,10,0,94,15.501,0.036,3.86,3.877,3.896,3.868,0,0,0,-2,1,-113.6,246.4,1024,1024,1024,1024,1024,,,,,
243,24.8,0m 24.8s,56.8701602,-5.43683275,P-GPS,5.2,1.6,5.9,1.8,0.0,0.0,0.0,0.0,0.0,0.0,0,0,10,0,94,15.501,0.036,3.86,3.877,3.896,3.868,0,0,0,-1.8,0.8,-113.6,246.4,1024,1024,1024,1024,1024,,,,,
244,24.9,0m 24.9s,56.87016015,-5.43683275,P-GPS,5.2,1.6,5.9,1.8,0.0,0.0,0.0,0.0,0.0,0.0,0,0,10,0,94,15.501,0.036,3.86,3.877,3.896,3.868,0,0,0,-1.8,0.6,-113.6,246.4,1024,1024,1024,1024,1024,,,,,
245,25,0m 25s,56.87016011,-5.43683277,P-GPS,5.2,1.6,5.9,1.8,0.0,0.0,0.0,0.0,0.0,0.0,0,0,9,0,94,15.501,0.036,3.86,3.877,3.896,3.868,0,0,0,-2,0.6,-113.6,246.4,1024,1024,1024,1024,1024,,,,,
246,25.1,0m 25.1s,56.87016007,-5.43683284,P-GPS,5.2,1.6,5.9,1.8,0.0,0.0,0.0,0.0,0.0,0.0,0,0,9,0,94,15.501,0.036,3.86,3.877,3.896,3.868,0,0,0,-2.1,1.1,-113.6,246.4,1024,1024,1024,1024,1024,,,,,
247,25.2,0m 25.2s,56.87016002,-5.43683296,P-GPS,5.2,1.6,5.9,1.8,0.0,0.0,0.0,0.0,0.0,0.0,0,0,9,0,94,15.501,0.036,3.86,3.877,3.896,3.868,0,0,0,-1.9,1.6,-113.7,246.3,1024,1024,1024,1024,1024,,,,,
248,25.3,0m 25.3s,56.87015997,-5.43683309,P-GPS,5.2,1.6,5.9,1.8,0.0,0.0,1.1,0.5,0.0,0.0,0,0,9,0,93,15.473,0.04,3.85,3.871,3.89,3.862,0,0,0,-1.6,1.7,-113.8,246.2,1024,1024,1024,1024,1024,,,,,
249,25.4,0m 25.4s,56.87015991,-5.43683326,P-GPS,5.2,1.6,5.9,1.8,0.0,0.0,0.0,0.0,0.0,0.0,0,0,9,0,93,15.473,0.04,3.85,3.871,3.89,3.862,0,0,0,-1.7,1.3,-113.8,246.2,1024,1024,1024,1024,1024,,,,,
250,25.5,0m 25.5s,56.87015984,-5.4368334,P-GPS,5.2,1.6,5.9,1.8,0.0,0.0,0.0,0.0,0.0,0.0,0,0,9,0,93,15.473,0.04,3.85,3.871,3.89,3.862,0,0,0,-1.9,0.7,-113.7,246.3,1024,1024,1024,1024,1024,,,,,
251,25.6,0m 25.6s,56.87015978,-5.43683355,P-GPS,5.2,1.6,5.9,1.8,0.0,0.0,0.0,0.0,0.0,0.0,0,0,9,0,93,15.473,0.04,3.85,3.871,3.89,3.862,0,0,0,-1.8,0.7,-113.6,246.4,1024,1024,1024,1024,1024,,,,,
252,25.7,0m 25.7s,56.87015973,-5.43683365,P-GPS,5.2,1.6,5.9,1.8,0.0,0.0,0.0,0.0,0.0,0.0,0,0,9,0,93,15.473,0.04,3.85,3.871,3.89,3.862,0,0,0,-1.5,1.2,-113.5,246.5,1024,1024,1024,1024,1024,,,,,
253,25.8,0m 25.8s,56.87015968,-5.43683374,P-GPS,5.2,1.6,5.9,1.8,0.0,0.0,0.0,0.0,0.0,0.0,0,0,9,1,93,15.473,0.04,3.85,3.871,3.89,3.862,0,0,0,-1.4,1.8,-113.5,246.5,1024,1024,1024,1024,1024,,,,,
254,25.9,0m 25.9s,56.87015964,-5.43683382,P-GPS,5.2,1.6,5.9,1.8,0.0,0.0,0.0,0.0,0.0,0.0,0,0,9,1,93,15.473,0.04,3.85,3.871,3.89,3.862,0,0,0,-1.6,1.7,-113.6,246.4,1024,1024,1024,1024,1024,,,,,
255,26,0m 26s,56.87015963,-5.43683388,P-GPS,5.2,1.6,5.9,1.8,0.0,0.0,0.0,0.0,0.0,0.0,0,0,9,1,93,15.473,0.04,3.85,3.871,3.89,3.862,0,0,0,-2,1.1,-113.5,246.5,1024,1024,1024,1024,1024,,,,,
256,26.1,0m 26.1s,56.87015965,-5.43683389,P-GPS,5.2,1.6,5.9,1.8,0.0,0.0,0.0,0.0,0.0,0.0,0,0,9,1,93,15.473,0.04,3.85,3.871,3.89,3.862,0,0,0,-2.5,0.6,-113.4,246.6,1024,1024,1024,1024,1024,,,,,
257,26.2,0m 26.2s,56.87015965,-5.43683388,P-GPS,5.2,1.6,5.9,1.8,0.0,0.0,0.0,0.0,0.0,0.0,0,0,8,1,93,15.473,0.04,3.85,3.871,3.89,3.862,0,0,0,-2.5,0.6,-113.3,246.7,1024,1024,1024,1024,1024,,,,,
258,26.3,0m 26.3s,56.87015962,-5.43683388,P-GPS,5.2,1.6,5.9,1.8,0.0,0.0,0.0,0.0,0.0,0.0,0,0,8,1,93,15.46,0.039,3.848,3.869,3.887,3.856,0,0,0,-2.3,1.1,-113.3,246.7,1024,1024,1024,1024,1024,,,,,
259,26.4,0m 26.4s,56.87015959,-5.43683387,P-GPS,5.2,1.6,5.9,1.8,0.0,0.0,0.0,0.0,0.0,0.0,0,0,8,1,93,15.46,0.039,3.848,3.869,3.887,3.856,0,0,0,-2.1,1.7,-113.3,246.7,1024,1024,1024,1024,1024,,,,,
260,26.5,0m 26.5s,56.87015958,-5.43683389,P-GPS,5.2,1.6,6.2,1.9,0.0,0.0,1.1,0.5,0.0,0.0,0,0,8,1,93,15.46,0.039,3.848,3.869,3.887,3.856,0,0,0,-2.1,1.7,-113.4,246.6,1024,1024,1024,1024,1024,,,,,
261,26.6,0m 26.6s,56.87015959,-5.4368339,P-GPS,5.2,1.6,5.9,1.8,0.0,0.0,0.0,0.0,0.0,0.0,0,0,8,1,93,15.46,0.039,3.848,3.869,3.887,3.856,0,0,0,-2.4,1.4,-113.4,246.6,1024,1024,1024,1024,1024,,,,,
262,26.7,0m 26.7s,56.87015959,-5.43683391,P-GPS,5.2,1.6,5.9,1.8,0.0,0.0,0.0,0.0,0.0,0.0,0,0,8,1,93,15.46,0.039,3.848,3.869,3.887,3.856,0,0,0,-2.7,0.9,-113.4,246.6,1024,1024,1024,1024,1024,,,,,
263,26.8,0m 26.8s,56.8701596,-5.43683392,P-GPS,5.2,1.6,5.9,1.8,0.0,0.0,0.0,0.0,0.0,0.0,0,0,8,1,93,15.46,0.039,3.848,3.869,3.887,3.856,0,0,0,-2.9,0.3,-113.4,246.6,1024,1024,1024,1024,1024,,,,,
264,26.9,0m 26.9s,56.87015963,-5.43683394,P-GPS,5.2,1.6,5.9,1.8,0.0,0.0,1.1,0.5,0.0,0.0,0,0,8,1,93,15.46,0.039,3.848,3.869,3.887,3.856,0,0,0,-2.8,0.1,-113.4,246.6,1024,1024,1024,1024,1024,,,,,
265,27,0m 27s,56.87015961,-5.43683395,P-GPS,5.2,1.6,5.9,1.8,0.0,0.0,0.0,0.0,0.0,0.0,0,0,8,1,93,15.46,0.039,3.848,3.869,3.887,3.856,0,0,0,-2.7,0.4,-113.4,246.6,1024,1024,1024,1024,1024,,,,,
266,27.1,0m 27.1s,56.87015956,-5.43683396,P-GPS,5.2,1.6,5.9,1.8,0.0,0.0,0.0,0.0,0.0,0.0,0,0,8,1,93,15.46,0.039,3.848,3.869,3.887,3.856,0,0,0,-2.5,1.2,-113.4,246.6,1024,1024,1024,1024,1024,,,,,
267,27.2,0m 27.2s,56.8701595,-5.43683398,P-GPS,5.2,1.6,5.9,1.8,0.0,0.0,0.0,0.0,0.0,0.0,0,0,8,1,93,15.46,0.039,3.848,3.869,3.887,3.856,0,0,0,-2.4,1.8,-113.5,246.5,1024,1024,1024,1024,1024,,,,,
268,27.3,0m 27.3s,56.87015946,-5.43683403,P-GPS,5.2,1.6,5.9,1.8,0.0,0.0,0.0,0.0,0.0,0.0,0,0,8,1,93,15.46,0.039,3.848,3.869,3.887,3.856,0,0,0,-2.5,1.7,-113.5,246.5,1024,1024,1024,1024,1024,,,,,
269,27.5,0m 27.5s,56.87015944,-5.43683418,P-GPS,5.2,1.6,5.9,1.8,0.0,0.0,0.0,0.0,0.0,0.0,0,0,9,4,93,15.46,0.039,3.848,3.869,3.887,3.856,0,0,0,-2.4,0.1,-113.4,246.6,1024,1024,1024,1024,1024,,,,,
270,27.6,0m 27.6s,56.87015942,-5.43683424,P-GPS,5.2,1.6,5.9,1.8,0.0,0.0,0.0,0.0,0.0,0.0,0,0,9,4,93,15.46,0.039,3.848,3.869,3.887,3.856,0,0,0,-2.4,0.3,-113.3,246.7,1024,1024,1024,1024,1024,,,,,
271,27.7,0m 27.7s,56.87015937,-5.43683429,P-GPS,5.2,1.6,5.9,1.8,0.0,0.0,0.0,0.0,0.0,0.0,0,0,9,4,93,15.46,0.039,3.848,3.869,3.887,3.856,0,0,0,-2.2,1,-113.4,246.6,1024,1024,1024,1024,1024,,,,,
272,27.8,0m 27.8s,56.87015935,-5.43683431,P-GPS,5.2,1.6,5.9,1.8,0.0,0.0,0.0,0.0,0.0,0.0,0,0,9,4,93,15.46,0.039,3.848,3.869,3.887,3.856,0,0,0,-2.1,1.6,-113.4,246.6,1024,1024,1024,1024,1024,,,,,
273,27.9,0m 27.9s,56.87015936,-5.43683432,P-GPS,5.2,1.6,5.9,1.8,0.0,0.0,0.0,0.0,0.0,0.0,0,0,9,4,93,15.46,0.039,3.848,3.869,3.887,3.856,0,0,0,-2.3,1.5,-113.5,246.5,1024,1024,1024,1024,1024,,,,,
274,28,0m 28s,56.87015939,-5.43683433,P-GPS,5.2,1.6,5.9,1.8,0.0,0.0,0.0,0.0,0.0,0.0,0,0,9,4,93,15.46,0.039,3.848,3.869,3.887,3.856,0,0,0,-2.7,0.8,-113.5,246.5,1024,1024,1024,1024,1024,,,,,
275,28.1,0m 28.1s,56.8701594,-5.43683436,P-GPS,5.2,1.6,5.9,1.8,0.0,0.0,0.0,0.0,0.0,0.0,0,0,9,4,93,15.46,0.039,3.848,3.869,3.887,3.856,0,0,0,-2.9,0,-113.4,246.6,1024,1024,1024,1024,1024,,,,,
276,28.2,0m 28.2s,56.8701594,-5.43683438,P-GPS,5.2,1.6,5.9,1.8,0.0,0.0,0.0,0.0,0.0,0.0,0,0,9,4,93,15.46,0.039,3.848,3.869,3.887,3.856,0,0,0,-3,0.1,-113.3,246.7,1024,1024,1024,1024,1024,,,,,
277,28.3,0m 28.3s,56.87015937,-5.43683441,P-GPS,5.2,1.6,5.9,1.8,0.0,0.0,0.0,0.0,0.0,0.0,56.87015945,-5.43683411,9,4,93,15.445,0.039,3.844,3.864,3.883,3.854,0,0,0,-2.8,1.1,-113.3,246.7,1024,1024,1024,1024,1024,,,,,
278,28.4,0m 28.4s,56.87015935,-5.43683445,P-GPS,5.2,1.6,5.9,1.8,0.0,0.0,0.0,0.0,0.0,0.0,56.87015945,-5.43683411,9,4,93,15.445,0.039,3.844,3.864,3.883,3.854,0,0,0,-2.6,2.2,-113.5,246.5,1024,1024,1024,1024,1024,,,,,
279,28.5,0m 28.5s,56.87015937,-5.43683453,P-GPS,5.2,1.6,5.9,1.8,0.0,0.0,0.0,0.0,0.0,0.0,56.87015945,-5.43683411,9,4,93,15.445,0.039,3.844,3.864,3.883,3.854,0,0,0,-2.3,2.1,-113.6,246.4,1024,1024,1024,1024,1024,,,,,
280,28.6,0m 28.6s,56.87015942,-5.43683463,P-GPS,5.2,1.6,5.9,1.8,0.0,0.0,0.0,0.0,0.0,0.0,56.87015945,-5.43683411,9,4,93,15.445,0.039,3.844,3.864,3.883,3.854,0,0,0,-2.1,1.2,-113.5,246.5,1024,1024,1024,1024,971,,,,,
281,28.7,0m 28.7s,56.87015946,-5.43683474,P-GPS,5.2,1.6,5.9,1.8,0.0,0.0,0.0,0.0,0.0,0.0,56.87015945,-5.43683411,9,4,93,15.445,0.039,3.844,3.864,3.883,3.854,0,0,0,-2,0,-113.5,246.5,1024,1024,1024,1024,887,,,Home Point Recorded. RTH Altitude:  30m.,,
282,28.8,0m 28.8s,56.8701595,-5.43683483,P-GPS,5.2,1.6,5.9,1.8,0.0,0.0,0.0,0.0,0.0,0.0,56.87015945,-5.43683411,9,4,93,15.445,0.039,3.844,3.864,3.883,3.854,0,0,0,-2.1,-0.4,-113.5,246.5,1024,1024,1024,1024,888,,,,,
283,28.9,0m 28.9s,56.87015951,-5.43683489,P-GPS,5.2,1.6,6.2,1.9,0.0,0.0,0.0,0.0,0.0,0.0,56.87015945,-5.43683411,9,4,93,15.445,0.039,3.844,3.864,3.883,3.854,0,0,0,-2.3,0,-113.5,246.5,1024,1024,1024,1024,877,,,,,
284,29,0m 29s,56.87015951,-5.43683494,P-GPS,5.2,1.6,6.2,1.9,0.0,0.0,0.0,0.0,0.0,0.0,56.87015945,-5.43683411,9,4,93,15.445,0.039,3.844,3.864,3.883,3.854,0,0,0,-2.4,0.4,-113.5,246.5,1024,1024,1024,1024,826,,,,,
285,29.1,0m 29.1s,56.87015952,-5.43683501,P-GPS,5.2,1.6,5.9,1.8,0.0,0.0,1.1,0.5,0.0,0.0,56.87015945,-5.43683411,9,4,93,15.445,0.039,3.844,3.864,3.883,3.854,0,0,0,-2.4,0.6,-113.5,246.5,1024,1024,1024,1024,861,,,,,
286,29.2,0m 29.2s,56.87015951,-5.4368351,P-GPS,5.2,1.6,5.9,1.8,0.0,0.0,0.0,0.0,0.0,0.0,56.87015945,-5.43683411,9,4,93,15.445,0.039,3.844,3.864,3.883,3.854,0,0,0.1,-2.1,0.6,-113.4,246.6,1024,1024,1024,1024,836,,,,,
287,29.3,0m 29.3s,56.87015947,-5.43683524,P-GPS,5.2,1.6,5.9,1.8,0.0,0.0,0.0,0.0,0.0,0.0,56.87015945,-5.43683411,9,4,93,15.426,0.038,3.84,3.86,3.878,3.848,0,0,0.1,-2,0.3,-113.3,246.7,1024,1024,1024,1024,862,,,,,
288,29.4,0m 29.4s,56.87015944,-5.43683536,P-GPS,4.9,1.5,5.9,1.8,0.0,0.0,0.0,0.0,0.0,0.0,56.87015945,-5.43683411,9,4,93,15.426,0.038,3.84,3.86,3.878,3.848,0,0,0.1,-2.2,0.1,-113.2,246.8,1024,1024,1024,1024,893,,,,,
289,29.5,0m 29.5s,56.8701594,-5.43683547,P-GPS,4.9,1.5,5.9,1.8,0.0,0.0,0.0,0.0,0.0,0.0,56.87015945,-5.43683411,9,4,93,15.426,0.038,3.84,3.86,3.878,3.848,0,0,0.1,-2.6,0.5,-113.2,246.8,1024,1024,1024,1024,945,,,,,
290,29.6,0m 29.6s,56.87015935,-5.43683558,P-GPS,4.9,1.5,5.9,1.8,0.0,0.0,0.0,0.0,0.3,0.1,56.87015945,-5.43683411,9,4,93,15.426,0.038,3.84,3.86,3.878,3.848,0,0,0.1,-2.7,0.8,-113.3,246.7,1024,1024,1024,1024,997,,,,,
291,29.7,0m 29.7s,56.87015926,-5.43683568,P-GPS,4.9,1.5,5.9,1.8,0.0,0.0,0.0,0.0,0.0,0.0,56.87015945,-5.43683411,9,4,93,15.426,0.038,3.84,3.86,3.878,3.848,0,0,0.1,-2.4,0.4,-113.4,246.6,1024,1024,1024,1024,1024,,,,,
292,29.8,0m 29.8s,56.87015918,-5.43683575,P-GPS,4.9,1.5,5.6,1.7,0.0,0.0,0.0,0.0,0.3,0.1,56.87015945,-5.43683411,9,4,93,15.426,0.038,3.84,3.86,3.878,3.848,0,0,0,-2,-0.2,-113.3,246.7,1024,1024,1024,1024,1024,,,,,
293,29.9,0m 29.9s,56.87015911,-5.43683577,P-GPS,4.9,1.5,5.9,1.8,0.0,0.0,0.0,0.0,0.0,0.0,56.87015945,-5.43683411,9,4,93,15.426,0.038,3.84,3.86,3.878,3.848,0,0,0,-1.8,-0.4,-113.3,246.7,1024,1024,1024,1024,1024,,,,,
294,30,0m 30s,56.87015901,-5.43683575,P-GPS,4.9,1.5,5.6,1.7,0.0,0.0,0.0,0.0,0.4,0.1,56.87015945,-5.43683411,9,4,93,15.426,0.038,3.84,3.86,3.878,3.848,0,0,0,-1.9,0.4,-113.4,246.6,1024,1024,1024,1024,1024,,,,,
295,30.1,0m 30.1s,56.87015886,-5.43683574,P-GPS,4.9,1.5,5.6,1.7,0.0,0.0,0.0,0.0,0.3,0.1,56.87015945,-5.43683411,9,4,93,15.426,0.038,3.84,3.86,3.878,3.848,0,0,0,-2,1.8,-113.6,246.4,1024,1024,1024,1024,1024,,,,,
296,30.2,0m 30.2s,56.87015872,-5.43683573,P-GPS,4.9,1.5,5.9,1.8,0.0,0.0,1.5,0.7,0.4,0.1,56.87015945,-5.43683411,8,4,93,15.426,0.038,3.84,3.86,3.878,3.848,0,0,0,-1.7,2.6,-113.7,246.3,1024,1024,1024,1024,1024,,,,,
297,30.3,0m 30.3s,56.87015861,-5.43683575,P-GPS,4.9,1.5,5.6,1.7,0.0,0.0,0.0,0.0,0.4,0.1,56.87015945,-5.43683411,8,4,93,15.41,0.051,3.827,3.855,3.878,3.85,0,0,0,-1.6,2.3,-113.7,246.3,1024,1024,1024,1024,1024,,,,,
298,30.4,0m 30.4s,56.87015853,-5.4368358,P-GPS,4.9,1.5,5.6,1.7,0.0,0.0,0.0,0.0,0.4,0.1,56.87015945,-5.43683411,8,4,93,15.41,0.051,3.827,3.855,3.878,3.85,0,0,0,-1.6,1.4,-113.6,246.4,1024,1024,1024,1024,1024,,,,,
299,30.5,0m 30.5s,56.87015848,-5.43683589,P-GPS,4.9,1.5,5.9,1.8,0.0,0.0,0.0,0.0,0.4,0.1,56.87015945,-5.43683411,8,4,93,15.41,0.051,3.827,3.855,3.878,3.85,0,0,0,-1.9,1,-113.5,246.5,1024,1024,1024,1024,1024,,,,,
300,30.6,0m 30.6s,56.87015846,-5.43683595,P-GPS,4.9,1.5,5.9,1.8,0.0,0.0,0.0,0.0,0.5,0.2,56.87015945,-5.43683411,8,4,93,15.41,0.051,3.827,3.855,3.878,3.85,0,0,0,-1.8,1.4,-113.4,246.6,1024,1024,1024,1024,1024,,,,,
301,30.7,0m 30.7s,56.87015845,-5.43683596,P-GPS,4.9,1.5,5.9,1.8,0.0,0.0,0.0,0.0,0.4,0.1,56.87015945,-5.43683411,8,4,93,15.41,0.051,3.827,3.855,3.878,3.85,0,0,0,-1.7,2.2,-113.5,246.5,1024,1024,1024,1024,1024,,,,,
302,30.8,0m 30.8s,56.87015845,-5.43683599,P-GPS,4.9,1.5,5.9,1.8,0.0,0.0,0.0,0.0,0.4,0.1,56.87015945,-5.43683411,8,4,93,15.41,0.051,3.827,3.855,3.878,3.85,0,0,0,-1.6,2.3,-113.6,246.4,1024,1024,1024,1024,1024,,,,,
303,30.9,0m 30.9s,56.87015852,-5.4368361,P-GPS,4.9,1.5,5.9,1.8,0.0,0.0,0.0,0.0,0.4,0.1,56.87015945,-5.43683411,8,4,93,15.41,0.051,3.827,3.855,3.878,3.85,0,0,0,-1.7,1.5,-113.6,246.4,1024,1024,1024,1024,1024,,,,,
304,31,0m 31s,56.87015859,-5.43683619,P-GPS,4.9,1.5,5.9,1.8,0.0,0.0,0.0,0.0,0.5,0.2,56.87015945,-5.43683411,8,4,93,15.41,0.051,3.827,3.855,3.878,3.85,0,0,0,-2,0.4,-113.6,246.4,1024,1024,1024,1024,1024,,,,,
305,31.1,0m 31.1s,56.87015861,-5.43683625,P-GPS,4.9,1.5,5.9,1.8,0.0,0.0,0.0,0.0,0.4,0.1,56.87015945,-5.43683411,8,4,93,15.41,0.051,3.827,3.855,3.878,3.85,0,0,0,-2.1,0,-113.5,246.5,1024,1024,1024,1024,1024,,,,,
306,31.2,0m 31.2s,56.8701586,-5.4368363,P-GPS,4.9,1.5,5.6,1.7,0.0,0.0,1.1,0.5,0.4,0.1,56.87015945,-5.43683411,8,4,93,15.41,0.051,3.827,3.855,3.878,3.85,0,0,0,-2,0.8,-113.5,246.5,1024,1024,1024,1024,1024,,,,,
307,31.3,0m 31.3s,56.87015858,-5.43683639,P-GPS,4.9,1.5,5.6,1.7,0.0,0.0,0.0,0.0,0.5,0.2,56.87015945,-5.43683411,8,4,93,15.41,0.051,3.827,3.855,3.878,3.85,0,0,0,-1.8,1.8,-113.5,246.5,1024,1024,1024,1024,1024,,,,,
308,31.4,0m 31.4s,56.87015855,-5.43683649,P-GPS,4.9,1.5,5.6,1.7,0.0,0.0,0.0,0.0,0.5,0.2,56.87015945,-5.43683411,8,4,93,15.41,0.051,3.827,3.855,3.878,3.85,0,0,0,-1.5,2,-113.5,246.5,1024,1024,1024,1024,1024,,,,,
309,31.5,0m 31.5s,56.8701586,-5.43683653,P-GPS,4.9,1.5,5.6,1.7,0.0,0.0,0.0,0.0,0.5,0.2,56.87015945,-5.43683411,8,4,93,15.41,0.051,3.827,3.855,3.878,3.85,0,0,0,-1.3,1.5,-113.5,246.5,1024,1024,1024,1024,1024,,,,,
310,31.6,0m 31.6s,56.87015863,-5.43683659,P-GPS,4.9,1.5,5.6,1.7,0.0,0.0,0.0,0.0,0.6,0.2,56.87015945,-5.43683411,8,4,93,15.41,0.051,3.827,3.855,3.878,3.85,0,0,0,-1.5,1.1,-113.5,246.5,1024,1024,1024,1024,1024,,,,,
311,31.7,0m 31.7s,56.87015864,-5.43683662,P-GPS,4.9,1.5,5.6,1.7,0.0,0.0,0.0,0.0,0.5,0.2,56.87015945,-5.43683411,8,4,93,15.41,0.051,3.827,3.855,3.878,3.85,0,0,0,-2,0.8,-113.5,246.5,1024,1024,1024,1024,1024,,,,,
312,31.8,0m 31.8s,56.87015864,-5.43683667,P-GPS,4.9,1.5,5.6,1.7,0.0,0.0,0.0,0.0,0.5,0.2,56.87015945,-5.43683411,8,4,93,15.41,0.051,3.827,3.855,3.878,3.85,0,0,0,-2.3,1,-113.6,246.4,1024,1024,1024,1024,1024,,,,,
313,31.9,0m 31.9s,56.87015868,-5.43683676,P-GPS,4.9,1.5,5.6,1.7,0.0,0.0,0.0,0.0,0.6,0.2,56.87015945,-5.43683411,8,4,93,15.41,0.051,3.827,3.855,3.878,3.85,0,0,0,-2.1,1.2,-113.6,246.4,1024,1024,1024,1024,1024,,,,,
314,32,0m 32s,56.8701587,-5.43683688,P-GPS,4.9,1.5,5.6,1.7,0.0,0.0,0.0,0.0,0.7,0.2,56.87015945,-5.43683411,8,4,93,15.41,0.051,3.827,3.855,3.878,3.85,0,0,0,-1.4,1.2,-113.5,246.5,1024,1024,1024,1024,1024,,,,,
315,32.1,0m 32.1s,56.87015873,-5.43683701,P-GPS,4.9,1.5,5.6,1.7,0.0,0.0,0.0,0.0,0.6,0.2,56.87015945,-5.43683411,8,4,93,15.41,0.051,3.827,3.855,3.878,3.85,0,0,0,-1.2,1,-113.5,246.5,1024,1024,1024,1024,1024,,,,,
316,32.2,0m 32.2s,56.87015874,-5.43683713,P-GPS,4.9,1.5,5.6,1.7,0.0,0.0,0.0,0.0,0.6,0.2,56.87015945,-5.43683411,8,4,93,15.41,0.051,3.827,3.855,3.878,3.85,0,0,0,-1.2,0.8,-113.5,246.5,1024,1024,1024,1024,1024,,,,,
317,32.3,0m 32.3s,56.87015876,-5.43683719,P-GPS,4.9,1.5,5.6,1.7,0.0,0.0,0.0,0.0,0.6,0.2,56.87015945,-5.43683411,8,4,93,15.411,0.041,3.835,3.855,3.876,3.845,0,0,0,-1.2,0.7,-113.5,246.5,1024,1024,1024,1024,1024,,,,,
318,32.4,0m 32.4s,56.87015876,-5.43683726,P-GPS,4.9,1.5,5.6,1.7,0.0,0.0,NaN,NaN,0.6,0.2,56.87015945,-5.43683411,8,4,93,15.411,0.041,3.835,3.855,3.876,3.845,0,0,0,-1.3,0.7,-113.6,246.4,1024,1024,1024,1024,1024,,,,,
319,32.5,0m 32.5s,56.87015871,-5.4368371,P-GPS,4.9,1.5,5.6,1.7,0.0,0.0,0.0,0.0,0.6,0.2,56.87015945,-5.43683411,9,4,93,15.411,0.041,3.835,3.855,3.876,3.845,0,0,0,-1.4,0.9,-113.6,246.4,1024,1024,1024,1024,1024,,,,,
320,32.6,0m 32.6s,56.87015866,-5.436837,P-GPS,4.9,1.5,5.6,1.7,0.0,0.0,0.0,0.0,0.6,0.2,56.87015945,-5.43683411,9,4,93,15.411,0.041,3.835,3.855,3.876,3.845,0,0,0,-1.5,1.3,-113.6,246.4,1024,1024,1024,1024,1024,,,,,
321,32.7,0m 32.7s,56.87015858,-5.43683666,P-GPS,4.9,1.5,5.6,1.7,0.0,0.0,0.0,0.0,0.6,0.2,56.87015945,-5.43683411,9,4,93,15.411,0.041,3.835,3.855,3.876,3.845,0,0,0,-1.6,1.6,-113.6,246.4,1024,1024,1024,1024,1024,,,,,
322,32.8,0m 32.8s,56.87015851,-5.43683645,P-GPS,4.9,1.5,5.6,1.7,0.0,0.0,0.0,0.0,0.6,0.2,56.87015945,-5.43683411,9,4,93,15.411,0.041,3.835,3.855,3.876,3.845,0,0,0,-1.5,1.6,-113.7,246.3,1024,1024,1024,1024,1024,,,,,
323,32.9,0m 32.9s,56.87015844,-5.43683633,P-GPS,4.9,1.5,5.6,1.7,0.0,0.0,0.0,0.0,0.6,0.2,56.87015945,-5.43683411,9,4,93,15.411,0.041,3.835,3.855,3.876,3.845,0,0,0,-1.3,1.3,-113.7,246.3,1024,1024,1024,1024,1024,,,,,
324,33,0m 33s,56.87015839,-5.43683624,P-GPS,4.9,1.5,5.6,1.7,0.0,0.0,0.0,0.0,0.6,0.2,56.87015945,-5.43683411,9,4,93,15.411,0.041,3.835,3.855,3.876,3.845,0,0,0,-0.9,1.1,-113.6,246.4,1024,1024,1024,1024,1024,,,,,
325,33.1,0m 33.1s,56.87015839,-5.43683623,P-GPS,4.9,1.5,5.6,1.7,0.0,0.0,0.0,0.0,0.6,0.2,56.87015945,-5.43683411,9,4,93,15.411,0.041,3.835,3.855,3.876,3.845,0,0,0,-0.6,1,-113.6,246.4,1024,1024,1024,1024,1024,,,,,
